header: 
  seq: 0
  stamp: 
    secs: 0
    nsecs:  29999999
  frame_id: "world"
pose: 
  position: 
    x: -0.00153317721561
    y: -0.0110240029171
    z: -0.00456581637263
  orientation: 
    x: 0.00233478227594
    y: 0.00262174812594
    z: -0.0108821126063
    w: 0.99993462529
---
header: 
  seq: 1
  stamp: 
    secs: 0
    nsecs:  59999999
  frame_id: "world"
pose: 
  position: 
    x: -0.000229715951718
    y: -0.0211713332683
    z: -0.00793731864542
  orientation: 
    x: 0.00188748732611
    y: 0.00605239520739
    z: -0.0181055586876
    w: 0.999815980393
---
header: 
  seq: 2
  stamp: 
    secs: 0
    nsecs:  89999996
  frame_id: "world"
pose: 
  position: 
    x: -0.00447299238294
    y: -0.0352067388594
    z: -0.013742829673
  orientation: 
    x: 0.00205983652512
    y: 0.0110504313777
    z: -0.0264384266262
    w: 0.999587242134
---
header: 
  seq: 3
  stamp: 
    secs: 0
    nsecs: 119999997
  frame_id: "world"
pose: 
  position: 
    x: -0.00707580009475
    y: -0.0484613850713
    z: -0.0189171340317
  orientation: 
    x: 0.00350328412628
    y: 0.0165400818978
    z: -0.0358483524648
    w: 0.99921421543
---
header: 
  seq: 4
  stamp: 
    secs: 0
    nsecs: 149999991
  frame_id: "world"
pose: 
  position: 
    x: -0.00877299625427
    y: -0.0601813755929
    z: -0.022493287921
  orientation: 
    x: 0.00594379806831
    y: 0.0215881154613
    z: -0.0434258812356
    w: 0.998805695506
---
header: 
  seq: 5
  stamp: 
    secs: 0
    nsecs: 179999992
  frame_id: "world"
pose: 
  position: 
    x: -0.0110306283459
    y: -0.0763087198138
    z: -0.0257240608335
  orientation: 
    x: 0.00902820741742
    y: 0.0239724700656
    z: -0.0497006284525
    w: 0.998435606177
---
header: 
  seq: 6
  stamp: 
    secs: 0
    nsecs: 209999993
  frame_id: "world"
pose: 
  position: 
    x: -0.0156099237502
    y: -0.0910098999739
    z: -0.0250560101122
  orientation: 
    x: 0.00974540229069
    y: 0.0235657562273
    z: -0.0564664343194
    w: 0.998078766462
---
header: 
  seq: 7
  stamp: 
    secs: 0
    nsecs: 239999995
  frame_id: "world"
pose: 
  position: 
    x: -0.0198922976851
    y: -0.105309665203
    z: -0.0247157849371
  orientation: 
    x: 0.00595805134219
    y: 0.0241347529537
    z: -0.0600483670364
    w: 0.997885869697
---
header: 
  seq: 8
  stamp: 
    secs: 0
    nsecs: 269999981
  frame_id: "world"
pose: 
  position: 
    x: -0.029390797019
    y: -0.118773467839
    z: -0.0259650200605
  orientation: 
    x: 0.00306766656157
    y: 0.0254389784127
    z: -0.0702203339569
    w: 0.997202362862
---
header: 
  seq: 9
  stamp: 
    secs: 0
    nsecs: 299999982
  frame_id: "world"
pose: 
  position: 
    x: -0.0292490050197
    y: -0.110525369644
    z: -0.0303695350885
  orientation: 
    x: 0.00657027611033
    y: 0.0228481189221
    z: -0.0819958552541
    w: 0.996349072692
---
header: 
  seq: 10
  stamp: 
    secs: 0
    nsecs: 329999983
  frame_id: "world"
pose: 
  position: 
    x: -0.0505026802421
    y: -0.152793064713
    z: -0.0227076821029
  orientation: 
    x: -0.00333597417319
    y: 0.013820174092
    z: -0.0920059838582
    w: 0.995656955481
---
header: 
  seq: 11
  stamp: 
    secs: 0
    nsecs: 359999985
  frame_id: "world"
pose: 
  position: 
    x: -0.0419787950814
    y: -0.153322950006
    z: -0.0225365366787
  orientation: 
    x: -0.00208022349557
    y: 0.00243208949962
    z: -0.0996542485288
    w: 0.995016978931
---
header: 
  seq: 12
  stamp: 
    secs: 0
    nsecs: 389999986
  frame_id: "world"
pose: 
  position: 
    x: -0.0663356855512
    y: -0.181126177311
    z: -0.0200234074146
  orientation: 
    x: -0.00720814619654
    y: 8.50360543521e-06
    z: -0.107158765816
    w: 0.994215792203
---
header: 
  seq: 13
  stamp: 
    secs: 0
    nsecs: 419999987
  frame_id: "world"
pose: 
  position: 
    x: -0.073939666152
    y: -0.190761193633
    z: -0.0237935557961
  orientation: 
    x: -0.00548491693154
    y: -0.00511164472463
    z: -0.110239023513
    w: 0.993876825602
---
header: 
  seq: 14
  stamp: 
    secs: 0
    nsecs: 449999988
  frame_id: "world"
pose: 
  position: 
    x: -0.101373262703
    y: -0.213485047221
    z: -0.0402580313385
  orientation: 
    x: -0.00196755527949
    y: -0.00526518860645
    z: -0.121635617209
    w: 0.992558906635
---
header: 
  seq: 15
  stamp: 
    secs: 0
    nsecs: 479999989
  frame_id: "world"
pose: 
  position: 
    x: -0.129339292645
    y: -0.233887627721
    z: -0.0509526394308
  orientation: 
    x: -0.00359427414416
    y: -0.00402075142841
    z: -0.130016579399
    w: 0.99149715271
---
header: 
  seq: 16
  stamp: 
    secs: 0
    nsecs: 509999990
  frame_id: "world"
pose: 
  position: 
    x: -0.144113078713
    y: -0.245341658592
    z: -0.0550382547081
  orientation: 
    x: -0.00605940113076
    y: -0.0091351791128
    z: -0.135700879865
    w: 0.990689206242
---
header: 
  seq: 17
  stamp: 
    secs: 0
    nsecs: 539999962
  frame_id: "world"
pose: 
  position: 
    x: -0.15758831799
    y: -0.256494134665
    z: -0.057674665004
  orientation: 
    x: -0.00702425330007
    y: -0.0161279534142
    z: -0.14304791487
    w: 0.989559418648
---
header: 
  seq: 18
  stamp: 
    secs: 0
    nsecs: 569999933
  frame_id: "world"
pose: 
  position: 
    x: -0.174516290426
    y: -0.28002756834
    z: -0.0485464558005
  orientation: 
    x: -0.0126134261824
    y: -0.0223040177011
    z: -0.145544625059
    w: 0.989019814964
---
header: 
  seq: 19
  stamp: 
    secs: 0
    nsecs: 599999905
  frame_id: "world"
pose: 
  position: 
    x: -0.201342567801
    y: -0.286311209202
    z: -0.0532016158104
  orientation: 
    x: -0.00784989375063
    y: -0.0223221282153
    z: -0.152454156936
    w: 0.988027242435
---
header: 
  seq: 20
  stamp: 
    secs: 0
    nsecs: 629999876
  frame_id: "world"
pose: 
  position: 
    x: -0.252897202969
    y: -0.308008641005
    z: -0.0570861883461
  orientation: 
    x: -0.0117895439592
    y: -0.0168692797342
    z: -0.160114743118
    w: 0.986883834649
---
header: 
  seq: 21
  stamp: 
    secs: 0
    nsecs: 659999847
  frame_id: "world"
pose: 
  position: 
    x: -0.246677026153
    y: -0.296225100756
    z: -0.0412773676217
  orientation: 
    x: -0.00221932752298
    y: -0.0284962713888
    z: -0.157106461288
    w: 0.987167967938
---
header: 
  seq: 22
  stamp: 
    secs: 0
    nsecs: 689999819
  frame_id: "world"
pose: 
  position: 
    x: -0.267556190491
    y: -0.307724773884
    z: -0.0401323325932
  orientation: 
    x: -0.0031699311293
    y: -0.0260689119209
    z: -0.156245107036
    w: 0.987369145708
---
header: 
  seq: 23
  stamp: 
    secs: 0
    nsecs: 719999790
  frame_id: "world"
pose: 
  position: 
    x: -0.29309762483
    y: -0.340020646082
    z: -0.0544368418934
  orientation: 
    x: -0.0114370350258
    y: -0.0270586937428
    z: -0.153051919952
    w: 0.987781418696
---
header: 
  seq: 24
  stamp: 
    secs: 0
    nsecs: 749999762
  frame_id: "world"
pose: 
  position: 
    x: -0.311608321027
    y: -0.348947675985
    z: -0.05450512184
  orientation: 
    x: -0.00978273146837
    y: -0.0360404629574
    z: -0.15402462725
    w: 0.987361026877
---
header: 
  seq: 25
  stamp: 
    secs: 0
    nsecs: 779999733
  frame_id: "world"
pose: 
  position: 
    x: -0.326716791325
    y: -0.355369064862
    z: -0.0550587904962
  orientation: 
    x: -0.00978640771203
    y: -0.0468923936456
    z: -0.158045385043
    w: 0.986269225875
---
header: 
  seq: 26
  stamp: 
    secs: 0
    nsecs: 809999704
  frame_id: "world"
pose: 
  position: 
    x: -0.343958493274
    y: -0.361046317061
    z: -0.0559381395028
  orientation: 
    x: -0.0126299564212
    y: -0.0568563997267
    z: -0.163262763851
    w: 0.98486197203
---
header: 
  seq: 27
  stamp: 
    secs: 0
    nsecs: 839999676
  frame_id: "world"
pose: 
  position: 
    x: -0.364143583712
    y: -0.366264026924
    z: -0.0568140818034
  orientation: 
    x: -0.0164929605958
    y: -0.067127614036
    z: -0.169050066126
    w: 0.983180523011
---
header: 
  seq: 28
  stamp: 
    secs: 0
    nsecs: 869999647
  frame_id: "world"
pose: 
  position: 
    x: -0.382547079129
    y: -0.371761958891
    z: -0.0590827122528
  orientation: 
    x: -0.0169907294237
    y: -0.0758121258071
    z: -0.179329080933
    w: 0.980716532657
---
header: 
  seq: 29
  stamp: 
    secs: 0
    nsecs: 899999619
  frame_id: "world"
pose: 
  position: 
    x: -0.400970853553
    y: -0.379020914797
    z: -0.0616717424089
  orientation: 
    x: -0.0147370265747
    y: -0.0820948750344
    z: -0.188379280797
    w: 0.978548158297
---
header: 
  seq: 30
  stamp: 
    secs: 0
    nsecs: 929999590
  frame_id: "world"
pose: 
  position: 
    x: -0.419998765554
    y: -0.387254465281
    z: -0.0650146326445
  orientation: 
    x: -0.0103242390908
    y: -0.0899204550803
    z: -0.198180471447
    w: 0.975977572787
---
header: 
  seq: 31
  stamp: 
    secs: 0
    nsecs: 959999561
  frame_id: "world"
pose: 
  position: 
    x: -0.438802356305
    y: -0.39494097167
    z: -0.0690289440937
  orientation: 
    x: -0.00709648230065
    y: -0.0948873447231
    z: -0.207554663459
    w: 0.973584661664
---
header: 
  seq: 32
  stamp: 
    secs: 0
    nsecs: 989999533
  frame_id: "world"
pose: 
  position: 
    x: -0.457531129331
    y: -0.40314509376
    z: -0.073873029697
  orientation: 
    x: -0.00605293523364
    y: -0.101237605925
    z: -0.21511519522
    w: 0.971308273365
---
header: 
  seq: 33
  stamp: 
    secs: 1
    nsecs:  19999504
  frame_id: "world"
pose: 
  position: 
    x: -0.478175547171
    y: -0.412247023528
    z: -0.0806431885761
  orientation: 
    x: -0.00490357006123
    y: -0.110633774086
    z: -0.22306817396
    w: 0.968491978696
---
header: 
  seq: 34
  stamp: 
    secs: 1
    nsecs:  49999475
  frame_id: "world"
pose: 
  position: 
    x: -0.496404130415
    y: -0.420780477278
    z: -0.0877462318614
  orientation: 
    x: -0.00596962057979
    y: -0.117340824351
    z: -0.224712179144
    w: 0.967315838346
---
header: 
  seq: 35
  stamp: 
    secs: 1
    nsecs:  79999447
  frame_id: "world"
pose: 
  position: 
    x: -0.514130074011
    y: -0.425831763596
    z: -0.0927545010499
  orientation: 
    x: -0.00738358448578
    y: -0.122703951503
    z: -0.22226609032
    w: 0.96720577338
---
header: 
  seq: 36
  stamp: 
    secs: 1
    nsecs: 109999418
  frame_id: "world"
pose: 
  position: 
    x: -0.526717710559
    y: -0.414706905311
    z: -0.103960528193
  orientation: 
    x: 0.00409296069533
    y: -0.128948537715
    z: -0.223116798448
    w: 0.966216547439
---
header: 
  seq: 37
  stamp: 
    secs: 1
    nsecs: 139999390
  frame_id: "world"
pose: 
  position: 
    x: -0.547023187863
    y: -0.422851120027
    z: -0.110985155267
  orientation: 
    x: 0.00594779809972
    y: -0.131741581715
    z: -0.22054924052
    w: 0.966419583748
---
header: 
  seq: 38
  stamp: 
    secs: 1
    nsecs: 169999361
  frame_id: "world"
pose: 
  position: 
    x: -0.566956389947
    y: -0.43150208333
    z: -0.118021901551
  orientation: 
    x: 0.0078432635841
    y: -0.136380076354
    z: -0.214953263219
    w: 0.967023294767
---
header: 
  seq: 39
  stamp: 
    secs: 1
    nsecs: 199999332
  frame_id: "world"
pose: 
  position: 
    x: -0.589374530251
    y: -0.441866242878
    z: -0.1253120426
  orientation: 
    x: 0.0119801384635
    y: -0.142883924756
    z: -0.207932068705
    w: 0.967576826476
---
header: 
  seq: 40
  stamp: 
    secs: 1
    nsecs: 229999304
  frame_id: "world"
pose: 
  position: 
    x: -0.611272391755
    y: -0.451152515661
    z: -0.132247963888
  orientation: 
    x: 0.0165239475647
    y: -0.149028404566
    z: -0.202528321112
    w: 0.967729183675
---
header: 
  seq: 41
  stamp: 
    secs: 1
    nsecs: 259999275
  frame_id: "world"
pose: 
  position: 
    x: -0.631563082347
    y: -0.459266180041
    z: -0.139111452896
  orientation: 
    x: 0.015339020159
    y: -0.150627960221
    z: -0.193583412527
    w: 0.969330384572
---
header: 
  seq: 42
  stamp: 
    secs: 1
    nsecs: 289999247
  frame_id: "world"
pose: 
  position: 
    x: -0.652566252369
    y: -0.466636573208
    z: -0.145274487879
  orientation: 
    x: 0.0138430564123
    y: -0.153875777717
    z: -0.185810706987
    w: 0.970363331948
---
header: 
  seq: 43
  stamp: 
    secs: 1
    nsecs: 319999218
  frame_id: "world"
pose: 
  position: 
    x: -0.673139468158
    y: -0.473590151879
    z: -0.151449537308
  orientation: 
    x: 0.011193774575
    y: -0.160660630008
    z: -0.1838414396
    w: 0.969672721315
---
header: 
  seq: 44
  stamp: 
    secs: 1
    nsecs: 349999189
  frame_id: "world"
pose: 
  position: 
    x: -0.694016894321
    y: -0.480302638254
    z: -0.158194521046
  orientation: 
    x: 0.00546576612222
    y: -0.167948184913
    z: -0.182970738959
    w: 0.968651248525
---
header: 
  seq: 45
  stamp: 
    secs: 1
    nsecs: 379999161
  frame_id: "world"
pose: 
  position: 
    x: -0.71244123038
    y: -0.485832090609
    z: -0.16402975039
  orientation: 
    x: 0.00152787069772
    y: -0.172119790853
    z: -0.179011270059
    w: 0.96867301418
---
header: 
  seq: 46
  stamp: 
    secs: 1
    nsecs: 409999132
  frame_id: "world"
pose: 
  position: 
    x: -0.730243102619
    y: -0.495910373418
    z: -0.175074469384
  orientation: 
    x: 0.00417279535985
    y: -0.175990163197
    z: -0.176629247251
    w: 0.96840702148
---
header: 
  seq: 47
  stamp: 
    secs: 1
    nsecs: 439999104
  frame_id: "world"
pose: 
  position: 
    x: -0.750321166232
    y: -0.503064187556
    z: -0.178121263209
  orientation: 
    x: 0.0130764873011
    y: -0.179124165006
    z: -0.175425231103
    w: 0.967971862857
---
header: 
  seq: 48
  stamp: 
    secs: 1
    nsecs: 469999075
  frame_id: "world"
pose: 
  position: 
    x: -0.76986029664
    y: -0.510456304361
    z: -0.182259455646
  orientation: 
    x: 0.0173127896316
    y: -0.1819679874
    z: -0.168019309558
    w: 0.968688510561
---
header: 
  seq: 49
  stamp: 
    secs: 1
    nsecs: 499999046
  frame_id: "world"
pose: 
  position: 
    x: -0.789443513933
    y: -0.517122860923
    z: -0.186523027004
  orientation: 
    x: 0.0176850008129
    y: -0.186491806712
    z: -0.157799773775
    w: 0.969539724907
---
header: 
  seq: 50
  stamp: 
    secs: 1
    nsecs: 529999018
  frame_id: "world"
pose: 
  position: 
    x: -0.809007057156
    y: -0.524358004496
    z: -0.189705770892
  orientation: 
    x: 0.0227435321084
    y: -0.189435228156
    z: -0.153388350672
    w: 0.96957157547
---
header: 
  seq: 51
  stamp: 
    secs: 1
    nsecs: 559998989
  frame_id: "world"
pose: 
  position: 
    x: -0.828979200263
    y: -0.532483806221
    z: -0.192433469361
  orientation: 
    x: 0.0276080491557
    y: -0.18979050478
    z: -0.150103255527
    w: 0.969889876531
---
header: 
  seq: 52
  stamp: 
    secs: 1
    nsecs: 589998960
  frame_id: "world"
pose: 
  position: 
    x: -0.848099452148
    y: -0.539045401964
    z: -0.19475486083
  orientation: 
    x: 0.0291526053175
    y: -0.188742665143
    z: -0.146525918513
    w: 0.970595944336
---
header: 
  seq: 53
  stamp: 
    secs: 1
    nsecs: 619998932
  frame_id: "world"
pose: 
  position: 
    x: -0.868138148166
    y: -0.547572701547
    z: -0.197735693088
  orientation: 
    x: 0.0329460789441
    y: -0.185225631606
    z: -0.146991460428
    w: 0.971081629854
---
header: 
  seq: 54
  stamp: 
    secs: 1
    nsecs: 649998903
  frame_id: "world"
pose: 
  position: 
    x: -0.886964662795
    y: -0.556139465084
    z: -0.200280089374
  orientation: 
    x: 0.0379318093861
    y: -0.176574012363
    z: -0.145590104582
    w: 0.972721089235
---
header: 
  seq: 55
  stamp: 
    secs: 1
    nsecs: 679998875
  frame_id: "world"
pose: 
  position: 
    x: -0.905135446288
    y: -0.564430342588
    z: -0.202331938773
  orientation: 
    x: 0.040463820388
    y: -0.16234639255
    z: -0.138836924595
    w: 0.97607921627
---
header: 
  seq: 56
  stamp: 
    secs: 1
    nsecs: 709998846
  frame_id: "world"
pose: 
  position: 
    x: -0.926074068598
    y: -0.573585434616
    z: -0.204802791211
  orientation: 
    x: 0.0442433147993
    y: -0.152241123114
    z: -0.136746422827
    w: 0.977837197785
---
header: 
  seq: 57
  stamp: 
    secs: 1
    nsecs: 739998817
  frame_id: "world"
pose: 
  position: 
    x: -0.947831613698
    y: -0.581460081928
    z: -0.206727374151
  orientation: 
    x: 0.0458333524583
    y: -0.143419705121
    z: -0.135223112107
    w: 0.979308328331
---
header: 
  seq: 58
  stamp: 
    secs: 1
    nsecs: 769998789
  frame_id: "world"
pose: 
  position: 
    x: -0.971908003737
    y: -0.589651047065
    z: -0.208312766745
  orientation: 
    x: 0.0508745463926
    y: -0.141355426593
    z: -0.132768991641
    w: 0.979695268316
---
header: 
  seq: 59
  stamp: 
    secs: 1
    nsecs: 799998760
  frame_id: "world"
pose: 
  position: 
    x: -0.998831686132
    y: -0.598449025392
    z: -0.210127388362
  orientation: 
    x: 0.0597767873805
    y: -0.144966306044
    z: -0.133868967472
    w: 0.978514489086
---
header: 
  seq: 60
  stamp: 
    secs: 1
    nsecs: 829998732
  frame_id: "world"
pose: 
  position: 
    x: -1.02699742711
    y: -0.604243530994
    z: -0.212128165913
  orientation: 
    x: 0.0614101112639
    y: -0.149364852758
    z: -0.132445024939
    w: 0.977945425044
---
header: 
  seq: 61
  stamp: 
    secs: 1
    nsecs: 859998703
  frame_id: "world"
pose: 
  position: 
    x: -1.05302915019
    y: -0.613229637573
    z: -0.213450535963
  orientation: 
    x: 0.062072089935
    y: -0.151448061251
    z: -0.133271946976
    w: 0.977470781427
---
header: 
  seq: 62
  stamp: 
    secs: 1
    nsecs: 889998674
  frame_id: "world"
pose: 
  position: 
    x: -1.07823932116
    y: -0.62243403
    z: -0.214618669658
  orientation: 
    x: 0.0639520372652
    y: -0.15500907142
    z: -0.130377387583
    w: 0.977181693194
---
header: 
  seq: 63
  stamp: 
    secs: 1
    nsecs: 919998646
  frame_id: "world"
pose: 
  position: 
    x: -1.10378230447
    y: -0.633064395143
    z: -0.216857470256
  orientation: 
    x: 0.0697925171218
    y: -0.162534728584
    z: -0.118353748669
    w: 0.97708948246
---
header: 
  seq: 64
  stamp: 
    secs: 1
    nsecs: 949998617
  frame_id: "world"
pose: 
  position: 
    x: -1.12705491187
    y: -0.643496759688
    z: -0.218011217108
  orientation: 
    x: 0.0793549774572
    y: -0.164824168357
    z: -0.103677293194
    w: 0.977643493281
---
header: 
  seq: 65
  stamp: 
    secs: 1
    nsecs: 979998589
  frame_id: "world"
pose: 
  position: 
    x: -1.14870006823
    y: -0.653569011783
    z: -0.218833942694
  orientation: 
    x: 0.0893371525424
    y: -0.162088234358
    z: -0.0946972426035
    w: 0.978150657977
---
header: 
  seq: 66
  stamp: 
    secs: 2
    nsecs:   9998560
  frame_id: "world"
pose: 
  position: 
    x: -1.16845572195
    y: -0.664063900727
    z: -0.221230675246
  orientation: 
    x: 0.0965825152452
    y: -0.158485248542
    z: -0.0899154004945
    w: 0.978503686502
---
header: 
  seq: 67
  stamp: 
    secs: 2
    nsecs:  39998531
  frame_id: "world"
pose: 
  position: 
    x: -1.18798412023
    y: -0.672458668512
    z: -0.223718345389
  orientation: 
    x: 0.103489362131
    y: -0.160252023895
    z: -0.0861246948242
    w: 0.977850590686
---
header: 
  seq: 68
  stamp: 
    secs: 2
    nsecs:  69998503
  frame_id: "world"
pose: 
  position: 
    x: -1.2066938866
    y: -0.679220047653
    z: -0.225856509203
  orientation: 
    x: 0.109625700241
    y: -0.164377566104
    z: -0.0829278945343
    w: 0.976772842536
---
header: 
  seq: 69
  stamp: 
    secs: 2
    nsecs:  99998474
  frame_id: "world"
pose: 
  position: 
    x: -1.22400631856
    y: -0.685513646879
    z: -0.228961368022
  orientation: 
    x: 0.11375981606
    y: -0.164989719425
    z: -0.0808609307811
    w: 0.976370117633
---
header: 
  seq: 70
  stamp: 
    secs: 2
    nsecs: 129998446
  frame_id: "world"
pose: 
  position: 
    x: -1.24094691861
    y: -0.69030378641
    z: -0.233318356476
  orientation: 
    x: 0.120131146314
    y: -0.16664478698
    z: -0.0831178187848
    w: 0.975135606394
---
header: 
  seq: 71
  stamp: 
    secs: 2
    nsecs: 159998417
  frame_id: "world"
pose: 
  position: 
    x: -1.26288789741
    y: -0.698850388987
    z: -0.238125258535
  orientation: 
    x: 0.127553963116
    y: -0.168517478783
    z: -0.0846522863511
    w: 0.973738073741
---
header: 
  seq: 72
  stamp: 
    secs: 2
    nsecs: 189998388
  frame_id: "world"
pose: 
  position: 
    x: -1.28163546871
    y: -0.704613940458
    z: -0.242333649612
  orientation: 
    x: 0.13529972952
    y: -0.172397001701
    z: -0.0833433710948
    w: 0.972125063709
---
header: 
  seq: 73
  stamp: 
    secs: 2
    nsecs: 219998360
  frame_id: "world"
pose: 
  position: 
    x: -1.30013382529
    y: -0.710106851615
    z: -0.246616991299
  orientation: 
    x: 0.145988033289
    y: -0.177633616541
    z: -0.079358822533
    w: 0.969966994128
---
header: 
  seq: 74
  stamp: 
    secs: 2
    nsecs: 249998331
  frame_id: "world"
pose: 
  position: 
    x: -1.31401452271
    y: -0.715023660446
    z: -0.252881457981
  orientation: 
    x: 0.158253663617
    y: -0.184640502332
    z: -0.0729104670716
    w: 0.967237161528
---
header: 
  seq: 75
  stamp: 
    secs: 2
    nsecs: 279998302
  frame_id: "world"
pose: 
  position: 
    x: -1.33004268425
    y: -0.719924653602
    z: -0.258085724502
  orientation: 
    x: 0.171025526425
    y: -0.188160369754
    z: -0.0676733641953
    w: 0.964762281779
---
header: 
  seq: 76
  stamp: 
    secs: 2
    nsecs: 309998274
  frame_id: "world"
pose: 
  position: 
    x: -1.34396043617
    y: -0.72426003387
    z: -0.263661769059
  orientation: 
    x: 0.179241978306
    y: -0.186470727948
    z: -0.0633351414056
    w: 0.963892961223
---
header: 
  seq: 77
  stamp: 
    secs: 2
    nsecs: 339998245
  frame_id: "world"
pose: 
  position: 
    x: -1.35582035172
    y: -0.727851937945
    z: -0.270003836359
  orientation: 
    x: 0.187031933459
    y: -0.186583099013
    z: -0.059932569577
    w: 0.962607858961
---
header: 
  seq: 78
  stamp: 
    secs: 2
    nsecs: 369998217
  frame_id: "world"
pose: 
  position: 
    x: -1.36790290424
    y: -0.731077905285
    z: -0.276148043367
  orientation: 
    x: 0.189910741978
    y: -0.18546076495
    z: -0.0525570266497
    w: 0.962692045098
---
header: 
  seq: 79
  stamp: 
    secs: 2
    nsecs: 399998188
  frame_id: "world"
pose: 
  position: 
    x: -1.38041327783
    y: -0.734036738452
    z: -0.282308043417
  orientation: 
    x: 0.190248589005
    y: -0.189261684354
    z: -0.0448879126254
    w: 0.962273643262
---
header: 
  seq: 80
  stamp: 
    secs: 2
    nsecs: 429998159
  frame_id: "world"
pose: 
  position: 
    x: -1.39097155553
    y: -0.737122723538
    z: -0.289668430896
  orientation: 
    x: 0.18788905332
    y: -0.1921086672
    z: -0.0341770010155
    w: 0.962613056337
---
header: 
  seq: 81
  stamp: 
    secs: 2
    nsecs: 459998131
  frame_id: "world"
pose: 
  position: 
    x: -1.40058772045
    y: -0.740711490739
    z: -0.29617685558
  orientation: 
    x: 0.186019211481
    y: -0.188848042252
    z: -0.0203311332103
    w: 0.964012403924
---
header: 
  seq: 82
  stamp: 
    secs: 2
    nsecs: 489998102
  frame_id: "world"
pose: 
  position: 
    x: -1.4133092016
    y: -0.744308070553
    z: -0.298943805369
  orientation: 
    x: 0.185149164066
    y: -0.182002196258
    z: -0.00898062889012
    w: 0.965667818614
---
header: 
  seq: 83
  stamp: 
    secs: 2
    nsecs: 519998074
  frame_id: "world"
pose: 
  position: 
    x: -1.42185496224
    y: -0.748396258961
    z: -0.304101316872
  orientation: 
    x: 0.185161971719
    y: -0.175017413339
    z: -0.00358699823418
    w: 0.966990735582
---
header: 
  seq: 84
  stamp: 
    secs: 2
    nsecs: 549998045
  frame_id: "world"
pose: 
  position: 
    x: -1.42792751542
    y: -0.752170110792
    z: -0.308951709816
  orientation: 
    x: 0.183892720742
    y: -0.167179670305
    z: -0.00251678073679
    w: 0.968621748109
---
header: 
  seq: 85
  stamp: 
    secs: 2
    nsecs: 579998016
  frame_id: "world"
pose: 
  position: 
    x: -1.43582150692
    y: -0.75654981565
    z: -0.314154429246
  orientation: 
    x: 0.180931730618
    y: -0.162505554595
    z: -0.00376397208028
    w: 0.969969837725
---
header: 
  seq: 86
  stamp: 
    secs: 2
    nsecs: 609997988
  frame_id: "world"
pose: 
  position: 
    x: -1.44335488203
    y: -0.761294792572
    z: -0.319653518192
  orientation: 
    x: 0.182866599792
    y: -0.160008745227
    z: -0.00367760347049
    w: 0.970022413846
---
header: 
  seq: 87
  stamp: 
    secs: 2
    nsecs: 639997959
  frame_id: "world"
pose: 
  position: 
    x: -1.45103613355
    y: -0.76659848863
    z: -0.325301711198
  orientation: 
    x: 0.189711858209
    y: -0.154083136737
    z: -0.000285758654225
    w: 0.969674025727
---
header: 
  seq: 88
  stamp: 
    secs: 2
    nsecs: 669997931
  frame_id: "world"
pose: 
  position: 
    x: -1.45829405964
    y: -0.772363341952
    z: -0.331246150824
  orientation: 
    x: 0.202107775211
    y: -0.145132779699
    z: 0.00446719508672
    w: 0.968539605604
---
header: 
  seq: 89
  stamp: 
    secs: 2
    nsecs: 699997902
  frame_id: "world"
pose: 
  position: 
    x: -1.46632175315
    y: -0.778445863715
    z: -0.337280604924
  orientation: 
    x: 0.215603370468
    y: -0.137694835672
    z: 0.00727481771239
    w: 0.966696641092
---
header: 
  seq: 90
  stamp: 
    secs: 2
    nsecs: 729997873
  frame_id: "world"
pose: 
  position: 
    x: -1.47683007624
    y: -0.78502558958
    z: -0.343364507546
  orientation: 
    x: 0.226192385625
    y: -0.135188133042
    z: 0.00456882270325
    w: 0.964645167525
---
header: 
  seq: 91
  stamp: 
    secs: 2
    nsecs: 759997845
  frame_id: "world"
pose: 
  position: 
    x: -1.48833265813
    y: -0.790948217557
    z: -0.349244339595
  orientation: 
    x: 0.233622554719
    y: -0.132726420846
    z: -0.000737749879883
    w: 0.963225651061
---
header: 
  seq: 92
  stamp: 
    secs: 2
    nsecs: 789997816
  frame_id: "world"
pose: 
  position: 
    x: -1.50185073466
    y: -0.797315032983
    z: -0.35458962239
  orientation: 
    x: 0.237317106566
    y: -0.127866575396
    z: -0.00431184359826
    w: 0.962970476096
---
header: 
  seq: 93
  stamp: 
    secs: 2
    nsecs: 819997787
  frame_id: "world"
pose: 
  position: 
    x: -1.51657016996
    y: -0.803454937169
    z: -0.359842283065
  orientation: 
    x: 0.238673654163
    y: -0.127107701366
    z: -0.00732374963497
    w: 0.962717446478
---
header: 
  seq: 94
  stamp: 
    secs: 2
    nsecs: 849997759
  frame_id: "world"
pose: 
  position: 
    x: -1.53199869496
    y: -0.809855079313
    z: -0.365085578182
  orientation: 
    x: 0.238704689956
    y: -0.126859637022
    z: -0.00745423756456
    w: 0.962741469882
---
header: 
  seq: 95
  stamp: 
    secs: 2
    nsecs: 879997730
  frame_id: "world"
pose: 
  position: 
    x: -1.54765704371
    y: -0.817105125661
    z: -0.370580963111
  orientation: 
    x: 0.23994768851
    y: -0.123540851181
    z: -0.00568272018717
    w: 0.962876145493
---
header: 
  seq: 96
  stamp: 
    secs: 2
    nsecs: 909997702
  frame_id: "world"
pose: 
  position: 
    x: -1.56184307906
    y: -0.82441573434
    z: -0.376390917571
  orientation: 
    x: 0.244066717554
    y: -0.118202192831
    z: -0.0063382469937
    w: 0.962506886011
---
header: 
  seq: 97
  stamp: 
    secs: 2
    nsecs: 939997673
  frame_id: "world"
pose: 
  position: 
    x: -1.5744360123
    y: -0.831570092872
    z: -0.382314764894
  orientation: 
    x: 0.249077264266
    y: -0.115585286208
    z: -0.00641476515124
    w: 0.961540123357
---
header: 
  seq: 98
  stamp: 
    secs: 2
    nsecs: 969997644
  frame_id: "world"
pose: 
  position: 
    x: -1.58693187507
    y: -0.838922779619
    z: -0.389113650409
  orientation: 
    x: 0.252606958835
    y: -0.114613682923
    z: -0.00197058727307
    w: 0.960754674629
---
header: 
  seq: 99
  stamp: 
    secs: 2
    nsecs: 999997616
  frame_id: "world"
pose: 
  position: 
    x: -1.5990447337
    y: -0.846375974872
    z: -0.396410898434
  orientation: 
    x: 0.257347280061
    y: -0.114103005095
    z: 0.00249146989326
    w: 0.959555456579
---
header: 
  seq: 100
  stamp: 
    secs: 3
    nsecs:  29997587
  frame_id: "world"
pose: 
  position: 
    x: -1.61188559549
    y: -0.854996756641
    z: -0.404304387528
  orientation: 
    x: 0.262519934246
    y: -0.114865163363
    z: 0.00536032688865
    w: 0.958050387644
---
header: 
  seq: 101
  stamp: 
    secs: 3
    nsecs:  59997559
  frame_id: "world"
pose: 
  position: 
    x: -1.62240340601
    y: -0.862359123988
    z: -0.4119318958
  orientation: 
    x: 0.266014955499
    y: -0.115581987049
    z: 0.00867867144821
    w: 0.956975197371
---
header: 
  seq: 102
  stamp: 
    secs: 3
    nsecs:  89997530
  frame_id: "world"
pose: 
  position: 
    x: -1.63353988306
    y: -0.870965973305
    z: -0.42048591798
  orientation: 
    x: 0.270363199926
    y: -0.11260917669
    z: 0.0135046459786
    w: 0.956054673117
---
header: 
  seq: 103
  stamp: 
    secs: 3
    nsecs: 119997501
  frame_id: "world"
pose: 
  position: 
    x: -1.64471155382
    y: -0.875232101636
    z: -0.427685554202
  orientation: 
    x: 0.278788056473
    y: -0.110759351664
    z: 0.0219809238653
    w: 0.953690948145
---
header: 
  seq: 104
  stamp: 
    secs: 3
    nsecs: 149997473
  frame_id: "world"
pose: 
  position: 
    x: -1.65683134879
    y: -0.882494877762
    z: -0.440711490001
  orientation: 
    x: 0.288014773061
    y: -0.111665055254
    z: 0.0337909072088
    w: 0.950492809296
---
header: 
  seq: 105
  stamp: 
    secs: 3
    nsecs: 179997444
  frame_id: "world"
pose: 
  position: 
    x: -1.66727295999
    y: -0.887440694326
    z: -0.449807476292
  orientation: 
    x: 0.298120831148
    y: -0.112867556103
    z: 0.0425154255111
    w: 0.946877670773
---
header: 
  seq: 106
  stamp: 
    secs: 3
    nsecs: 209997416
  frame_id: "world"
pose: 
  position: 
    x: -1.67644840631
    y: -0.892562542977
    z: -0.460638347277
  orientation: 
    x: 0.310584454974
    y: -0.114603343571
    z: 0.0436190967038
    w: 0.942603174392
---
header: 
  seq: 107
  stamp: 
    secs: 3
    nsecs: 239997387
  frame_id: "world"
pose: 
  position: 
    x: -1.68733181094
    y: -0.896802463331
    z: -0.471261098032
  orientation: 
    x: 0.319510794368
    y: -0.116502934476
    z: 0.04026396944
    w: 0.939531123117
---
header: 
  seq: 108
  stamp: 
    secs: 3
    nsecs: 269997358
  frame_id: "world"
pose: 
  position: 
    x: -1.69888645669
    y: -0.9006414501
    z: -0.481897721234
  orientation: 
    x: 0.326894151063
    y: -0.118488409668
    z: 0.0327806938886
    w: 0.937030488769
---
header: 
  seq: 109
  stamp: 
    secs: 3
    nsecs: 299997330
  frame_id: "world"
pose: 
  position: 
    x: -1.70939368227
    y: -0.904244442398
    z: -0.493319600214
  orientation: 
    x: 0.335721011423
    y: -0.118239348458
    z: 0.0218618982493
    w: 0.934255273665
---
header: 
  seq: 110
  stamp: 
    secs: 3
    nsecs: 329997301
  frame_id: "world"
pose: 
  position: 
    x: -1.72015603607
    y: -0.907400942349
    z: -0.504467150427
  orientation: 
    x: 0.342624210181
    y: -0.117447657043
    z: 0.0132362743373
    w: 0.932008315142
---
header: 
  seq: 111
  stamp: 
    secs: 3
    nsecs: 359997272
  frame_id: "world"
pose: 
  position: 
    x: -1.73130304218
    y: -0.910095409164
    z: -0.515832481183
  orientation: 
    x: 0.347044308151
    y: -0.120177922798
    z: 0.00773439207045
    w: 0.93008477798
---
header: 
  seq: 112
  stamp: 
    secs: 3
    nsecs: 389997244
  frame_id: "world"
pose: 
  position: 
    x: -1.74200797751
    y: -0.912904559453
    z: -0.527224161362
  orientation: 
    x: 0.35268192488
    y: -0.125624203512
    z: 0.00517447417207
    w: 0.927257916748
---
header: 
  seq: 113
  stamp: 
    secs: 3
    nsecs: 419997215
  frame_id: "world"
pose: 
  position: 
    x: -1.75298047021
    y: -0.915395910622
    z: -0.538488562311
  orientation: 
    x: 0.356145291419
    y: -0.132705972401
    z: 0.00541853245082
    w: 0.924943401401
---
header: 
  seq: 114
  stamp: 
    secs: 3
    nsecs: 449997187
  frame_id: "world"
pose: 
  position: 
    x: -1.76390519211
    y: -0.917893331215
    z: -0.550399522394
  orientation: 
    x: 0.355756567692
    y: -0.145101312985
    z: 0.00453368002569
    w: 0.923234704319
---
header: 
  seq: 115
  stamp: 
    secs: 3
    nsecs: 479997158
  frame_id: "world"
pose: 
  position: 
    x: -1.77893307981
    y: -0.919862605843
    z: -0.56159085939
  orientation: 
    x: 0.35384227539
    y: -0.156778876303
    z: 0.00397785007403
    w: 0.922063015635
---
header: 
  seq: 116
  stamp: 
    secs: 3
    nsecs: 509997129
  frame_id: "world"
pose: 
  position: 
    x: -1.79038145926
    y: -0.921914456296
    z: -0.573455659416
  orientation: 
    x: 0.353950167076
    y: -0.164172592683
    z: 0.00228683013029
    w: 0.920739599152
---
header: 
  seq: 117
  stamp: 
    secs: 3
    nsecs: 539997101
  frame_id: "world"
pose: 
  position: 
    x: -1.7956254238
    y: -0.923554908153
    z: -0.589976556744
  orientation: 
    x: 0.354699799813
    y: -0.174361400365
    z: -0.000398294528011
    w: 0.918578246769
---
header: 
  seq: 118
  stamp: 
    secs: 3
    nsecs: 569997072
  frame_id: "world"
pose: 
  position: 
    x: -1.80749577647
    y: -0.925806379845
    z: -0.602127867975
  orientation: 
    x: 0.35538973453
    y: -0.184741542543
    z: -0.00481030718202
    w: 0.916267188103
---
header: 
  seq: 119
  stamp: 
    secs: 3
    nsecs: 599997044
  frame_id: "world"
pose: 
  position: 
    x: -1.81946867472
    y: -0.927585401289
    z: -0.613654557802
  orientation: 
    x: 0.353255285213
    y: -0.195142529626
    z: -0.00558917178105
    w: 0.914931067217
---
header: 
  seq: 120
  stamp: 
    secs: 3
    nsecs: 629997015
  frame_id: "world"
pose: 
  position: 
    x: -1.83099069034
    y: -0.928442630482
    z: -0.624673802336
  orientation: 
    x: 0.349768247366
    y: -0.203559127979
    z: -0.00309994589815
    w: 0.914448601555
---
header: 
  seq: 121
  stamp: 
    secs: 3
    nsecs: 659996986
  frame_id: "world"
pose: 
  position: 
    x: -1.84269094231
    y: -0.929721193005
    z: -0.63586137516
  orientation: 
    x: 0.350332587537
    y: -0.212167934302
    z: -0.00272582356071
    w: 0.912274309432
---
header: 
  seq: 122
  stamp: 
    secs: 3
    nsecs: 689996958
  frame_id: "world"
pose: 
  position: 
    x: -1.85289422359
    y: -0.930188665343
    z: -0.64623912727
  orientation: 
    x: 0.353404216371
    y: -0.226180117502
    z: -0.00444158255242
    w: 0.907704955722
---
header: 
  seq: 123
  stamp: 
    secs: 3
    nsecs: 719996929
  frame_id: "world"
pose: 
  position: 
    x: -1.86428487355
    y: -0.930972193921
    z: -0.657308134138
  orientation: 
    x: 0.355249775692
    y: -0.240613780946
    z: -0.00563178545411
    w: 0.903255715887
---
header: 
  seq: 124
  stamp: 
    secs: 3
    nsecs: 749996901
  frame_id: "world"
pose: 
  position: 
    x: -1.87743430455
    y: -0.930486677737
    z: -0.668392103945
  orientation: 
    x: 0.356841403538
    y: -0.249518560536
    z: -0.00620702022992
    w: 0.900203406775
---
header: 
  seq: 125
  stamp: 
    secs: 3
    nsecs: 779996872
  frame_id: "world"
pose: 
  position: 
    x: -1.88679322914
    y: -0.930667871369
    z: -0.678273186593
  orientation: 
    x: 0.356482380452
    y: -0.255372187349
    z: -0.00829381068493
    w: 0.898686024738
---
header: 
  seq: 126
  stamp: 
    secs: 3
    nsecs: 809996843
  frame_id: "world"
pose: 
  position: 
    x: -1.89702270429
    y: -0.928993718475
    z: -0.687180194117
  orientation: 
    x: 0.353065211129
    y: -0.260720505614
    z: -0.0109587519414
    w: 0.898470745433
---
header: 
  seq: 127
  stamp: 
    secs: 3
    nsecs: 839996815
  frame_id: "world"
pose: 
  position: 
    x: -1.90872215968
    y: -0.926837284201
    z: -0.696194613303
  orientation: 
    x: 0.347482479133
    y: -0.268048850075
    z: -0.0138277475265
    w: 0.898451186246
---
header: 
  seq: 128
  stamp: 
    secs: 3
    nsecs: 869996786
  frame_id: "world"
pose: 
  position: 
    x: -1.92010531926
    y: -0.925599387202
    z: -0.708781005916
  orientation: 
    x: 0.344230848541
    y: -0.276033351702
    z: -0.0180268489291
    w: 0.897209977864
---
header: 
  seq: 129
  stamp: 
    secs: 3
    nsecs: 899996758
  frame_id: "world"
pose: 
  position: 
    x: -1.93119380842
    y: -0.922519696869
    z: -0.717735648242
  orientation: 
    x: 0.340350488779
    y: -0.282195870341
    z: -0.0203904967967
    w: 0.896722511812
---
header: 
  seq: 130
  stamp: 
    secs: 3
    nsecs: 929996729
  frame_id: "world"
pose: 
  position: 
    x: -1.94315855126
    y: -0.919150610994
    z: -0.72662945718
  orientation: 
    x: 0.332148810969
    y: -0.288778851553
    z: -0.0206957682636
    w: 0.897694618143
---
header: 
  seq: 131
  stamp: 
    secs: 3
    nsecs: 959996700
  frame_id: "world"
pose: 
  position: 
    x: -1.9540235915
    y: -0.916185971644
    z: -0.735395260523
  orientation: 
    x: 0.327525535084
    y: -0.293375802315
    z: -0.0192586427787
    w: 0.897934723219
---
header: 
  seq: 132
  stamp: 
    secs: 3
    nsecs: 989996672
  frame_id: "world"
pose: 
  position: 
    x: -1.96457039661
    y: -0.913578008922
    z: -0.744045161332
  orientation: 
    x: 0.32159087172
    y: -0.294737839501
    z: -0.0157766468362
    w: 0.899699958101
---
header: 
  seq: 133
  stamp: 
    secs: 4
    nsecs:  19996643
  frame_id: "world"
pose: 
  position: 
    x: -1.97510467971
    y: -0.910701190863
    z: -0.751941999571
  orientation: 
    x: 0.315915057499
    y: -0.295832579204
    z: -0.0113676053882
    w: 0.901416407148
---
header: 
  seq: 134
  stamp: 
    secs: 4
    nsecs:  49996853
  frame_id: "world"
pose: 
  position: 
    x: -1.98583633075
    y: -0.908109202698
    z: -0.760349979581
  orientation: 
    x: 0.312416614791
    y: -0.300238458288
    z: -0.00981049163814
    w: 0.901197248787
---
header: 
  seq: 135
  stamp: 
    secs: 4
    nsecs:  79997063
  frame_id: "world"
pose: 
  position: 
    x: -1.9966044077
    y: -0.905166362768
    z: -0.768893708273
  orientation: 
    x: 0.307452882143
    y: -0.308352993734
    z: -0.0104459160871
    w: 0.900156674893
---
header: 
  seq: 136
  stamp: 
    secs: 4
    nsecs: 109997272
  frame_id: "world"
pose: 
  position: 
    x: -2.00719274913
    y: -0.901433331571
    z: -0.776659449488
  orientation: 
    x: 0.297354403711
    y: -0.316168506203
    z: -0.0100941895119
    w: 0.900841796109
---
header: 
  seq: 137
  stamp: 
    secs: 4
    nsecs: 139997482
  frame_id: "world"
pose: 
  position: 
    x: -2.01727210847
    y: -0.897067086209
    z: -0.784003187238
  orientation: 
    x: 0.285915193257
    y: -0.322520828752
    z: -0.00912230851922
    w: 0.902302388766
---
header: 
  seq: 138
  stamp: 
    secs: 4
    nsecs: 169997692
  frame_id: "world"
pose: 
  position: 
    x: -2.02693463085
    y: -0.892260881257
    z: -0.791447545631
  orientation: 
    x: 0.27546449997
    y: -0.331988012012
    z: -0.0118741415459
    w: 0.902087730711
---
header: 
  seq: 139
  stamp: 
    secs: 4
    nsecs: 199997902
  frame_id: "world"
pose: 
  position: 
    x: -2.03519670648
    y: -0.888005911754
    z: -0.799663271434
  orientation: 
    x: 0.266716889334
    y: -0.342881827557
    z: -0.0190778663609
    w: 0.900516622995
---
header: 
  seq: 140
  stamp: 
    secs: 4
    nsecs: 229998112
  frame_id: "world"
pose: 
  position: 
    x: -2.04281969245
    y: -0.882987504673
    z: -0.806867187255
  orientation: 
    x: 0.259820668758
    y: -0.349791645979
    z: -0.0259916226216
    w: 0.899701872868
---
header: 
  seq: 141
  stamp: 
    secs: 4
    nsecs: 259998322
  frame_id: "world"
pose: 
  position: 
    x: -2.05025672778
    y: -0.877765167739
    z: -0.814100376791
  orientation: 
    x: 0.254834753088
    y: -0.355456461093
    z: -0.0312562988802
    w: 0.898739671243
---
header: 
  seq: 142
  stamp: 
    secs: 4
    nsecs: 289998531
  frame_id: "world"
pose: 
  position: 
    x: -2.05699052297
    y: -0.872526644362
    z: -0.82126395304
  orientation: 
    x: 0.251806534362
    y: -0.364026145635
    z: -0.0333301214912
    w: 0.896084559374
---
header: 
  seq: 143
  stamp: 
    secs: 4
    nsecs: 319998741
  frame_id: "world"
pose: 
  position: 
    x: -2.0289077541
    y: -0.855658835805
    z: -0.836097255706
  orientation: 
    x: 0.248851787191
    y: -0.379748430657
    z: -0.0382214159792
    w: 0.890170231352
---
header: 
  seq: 144
  stamp: 
    secs: 4
    nsecs: 349998951
  frame_id: "world"
pose: 
  position: 
    x: -2.03379941085
    y: -0.849584276666
    z: -0.842900965224
  orientation: 
    x: 0.246596833096
    y: -0.385351919823
    z: -0.0415101200726
    w: 0.888240288282
---
header: 
  seq: 145
  stamp: 
    secs: 4
    nsecs: 379999161
  frame_id: "world"
pose: 
  position: 
    x: -2.03799558257
    y: -0.843809321289
    z: -0.849950642952
  orientation: 
    x: 0.246401938736
    y: -0.389093805889
    z: -0.0473922105175
    w: 0.886366782539
---
header: 
  seq: 146
  stamp: 
    secs: 4
    nsecs: 409999371
  frame_id: "world"
pose: 
  position: 
    x: -2.04142263151
    y: -0.837165070314
    z: -0.85628893803
  orientation: 
    x: 0.246432784251
    y: -0.391808100414
    z: -0.0510746880345
    w: 0.884956875525
---
header: 
  seq: 147
  stamp: 
    secs: 4
    nsecs: 439999580
  frame_id: "world"
pose: 
  position: 
    x: -2.04398323364
    y: -0.830612767142
    z: -0.862212562045
  orientation: 
    x: 0.243874624515
    y: -0.395857422801
    z: -0.0500750201956
    w: 0.883919996766
---
header: 
  seq: 148
  stamp: 
    secs: 4
    nsecs: 469999790
  frame_id: "world"
pose: 
  position: 
    x: -2.0456639507
    y: -0.823813187601
    z: -0.867864035893
  orientation: 
    x: 0.237838500558
    y: -0.402836095047
    z: -0.045943330002
    w: 0.882635337276
---
header: 
  seq: 149
  stamp: 
    secs: 4
    nsecs: 500000000
  frame_id: "world"
pose: 
  position: 
    x: -2.04743534018
    y: -0.816031442663
    z: -0.872359719646
  orientation: 
    x: 0.228615298872
    y: -0.410658772928
    z: -0.0423195549659
    w: 0.881648156923
---
header: 
  seq: 150
  stamp: 
    secs: 4
    nsecs: 530000210
  frame_id: "world"
pose: 
  position: 
    x: -2.05261444257
    y: -0.804331769899
    z: -0.872624949277
  orientation: 
    x: 0.216757539129
    y: -0.416214344992
    z: -0.040493661606
    w: 0.882123603371
---
header: 
  seq: 151
  stamp: 
    secs: 4
    nsecs: 560000420
  frame_id: "world"
pose: 
  position: 
    x: -2.0529450011
    y: -0.795887429901
    z: -0.874615082403
  orientation: 
    x: 0.203366065489
    y: -0.418421958266
    z: -0.0390463777377
    w: 0.884330644405
---
header: 
  seq: 152
  stamp: 
    secs: 4
    nsecs: 590000629
  frame_id: "world"
pose: 
  position: 
    x: -2.05239673675
    y: -0.787339726304
    z: -0.876061755491
  orientation: 
    x: 0.190143529787
    y: -0.419452836849
    z: -0.0358065416019
    w: 0.88691749747
---
header: 
  seq: 153
  stamp: 
    secs: 4
    nsecs: 620000839
  frame_id: "world"
pose: 
  position: 
    x: -2.05136420494
    y: -0.778409376915
    z: -0.87685658724
  orientation: 
    x: 0.175977795385
    y: -0.420176553765
    z: -0.0337389049363
    w: 0.889575834593
---
header: 
  seq: 154
  stamp: 
    secs: 4
    nsecs: 650001049
  frame_id: "world"
pose: 
  position: 
    x: -2.04966543274
    y: -0.76957416317
    z: -0.87704500212
  orientation: 
    x: 0.162132293756
    y: -0.418084936953
    z: -0.0323479512257
    w: 0.893236651099
---
header: 
  seq: 155
  stamp: 
    secs: 4
    nsecs: 680001259
  frame_id: "world"
pose: 
  position: 
    x: -2.04743049892
    y: -0.760448605437
    z: -0.876803472624
  orientation: 
    x: 0.146415827423
    y: -0.41532421146
    z: -0.0324997513374
    w: 0.897224593409
---
header: 
  seq: 156
  stamp: 
    secs: 4
    nsecs: 710001469
  frame_id: "world"
pose: 
  position: 
    x: -2.04497103286
    y: -0.75134462244
    z: -0.876298041074
  orientation: 
    x: 0.131747043664
    y: -0.413523063712
    z: -0.0347551837857
    w: 0.90024078416
---
header: 
  seq: 157
  stamp: 
    secs: 4
    nsecs: 740001678
  frame_id: "world"
pose: 
  position: 
    x: -2.04216718319
    y: -0.743189067979
    z: -0.875530044472
  orientation: 
    x: 0.121168171766
    y: -0.411062921901
    z: -0.0341736335511
    w: 0.902871924006
---
header: 
  seq: 158
  stamp: 
    secs: 4
    nsecs: 770001888
  frame_id: "world"
pose: 
  position: 
    x: -2.03918759486
    y: -0.735240067522
    z: -0.874392885912
  orientation: 
    x: 0.110547409182
    y: -0.409388698792
    z: -0.0317675382941
    w: 0.905080652282
---
header: 
  seq: 159
  stamp: 
    secs: 4
    nsecs: 800002098
  frame_id: "world"
pose: 
  position: 
    x: -2.03539426588
    y: -0.727360674457
    z: -0.872584897203
  orientation: 
    x: 0.0991012893061
    y: -0.4073000143
    z: -0.0316071367747
    w: 0.90735143231
---
header: 
  seq: 160
  stamp: 
    secs: 4
    nsecs: 830002308
  frame_id: "world"
pose: 
  position: 
    x: -2.03082984219
    y: -0.719943908462
    z: -0.869529538328
  orientation: 
    x: 0.0908250929404
    y: -0.400326615243
    z: -0.0319404672062
    w: 0.911300834069
---
header: 
  seq: 161
  stamp: 
    secs: 4
    nsecs: 860002518
  frame_id: "world"
pose: 
  position: 
    x: -2.03017656964
    y: -0.711640995684
    z: -0.864232735028
  orientation: 
    x: 0.0860257870655
    y: -0.390244441321
    z: -0.0320923156438
    w: 0.916121674918
---
header: 
  seq: 162
  stamp: 
    secs: 4
    nsecs: 890002728
  frame_id: "world"
pose: 
  position: 
    x: -2.02417969058
    y: -0.705385879381
    z: -0.859540862211
  orientation: 
    x: 0.080134852579
    y: -0.378370458283
    z: -0.0347352099513
    w: 0.921524642584
---
header: 
  seq: 163
  stamp: 
    secs: 4
    nsecs: 920002937
  frame_id: "world"
pose: 
  position: 
    x: -2.01732878326
    y: -0.699452392666
    z: -0.854165498599
  orientation: 
    x: 0.0713996024986
    y: -0.366458382247
    z: -0.0345078162763
    w: 0.92704884524
---
header: 
  seq: 164
  stamp: 
    secs: 4
    nsecs: 950003147
  frame_id: "world"
pose: 
  position: 
    x: -2.00968277488
    y: -0.693975258678
    z: -0.848621976552
  orientation: 
    x: 0.0606176480008
    y: -0.357485342405
    z: -0.0304825841644
    w: 0.931450773138
---
header: 
  seq: 165
  stamp: 
    secs: 4
    nsecs: 980003357
  frame_id: "world"
pose: 
  position: 
    x: -2.00108742666
    y: -0.689122411358
    z: -0.842525587691
  orientation: 
    x: 0.0541198604159
    y: -0.349800045841
    z: -0.0224227674887
    w: 0.934991009655
---
header: 
  seq: 166
  stamp: 
    secs: 5
    nsecs:  10003567
  frame_id: "world"
pose: 
  position: 
    x: -1.99176167138
    y: -0.684689348495
    z: -0.835565371495
  orientation: 
    x: 0.0491626650644
    y: -0.339358029019
    z: -0.0151298074212
    w: 0.939249833341
---
header: 
  seq: 167
  stamp: 
    secs: 5
    nsecs:  40003777
  frame_id: "world"
pose: 
  position: 
    x: -1.98193967734
    y: -0.680468616233
    z: -0.827847471209
  orientation: 
    x: 0.0446313513829
    y: -0.328832737253
    z: -0.0119458678095
    w: 0.943257318883
---
header: 
  seq: 168
  stamp: 
    secs: 5
    nsecs:  70003986
  frame_id: "world"
pose: 
  position: 
    x: -1.97215193861
    y: -0.675509053901
    z: -0.818797937505
  orientation: 
    x: 0.04173800791
    y: -0.316074487972
    z: -0.0104202338069
    w: 0.947758553365
---
header: 
  seq: 169
  stamp: 
    secs: 5
    nsecs: 100004196
  frame_id: "world"
pose: 
  position: 
    x: -1.96161469117
    y: -0.670631684848
    z: -0.809061898901
  orientation: 
    x: 0.0370279284461
    y: -0.302565013411
    z: -0.00779697855815
    w: 0.952377316141
---
header: 
  seq: 170
  stamp: 
    secs: 5
    nsecs: 130004406
  frame_id: "world"
pose: 
  position: 
    x: -1.94895902686
    y: -0.666951491682
    z: -0.799683741561
  orientation: 
    x: 0.0329940041137
    y: -0.290548070973
    z: -0.00379749988232
    w: 0.956283845488
---
header: 
  seq: 171
  stamp: 
    secs: 5
    nsecs: 160004616
  frame_id: "world"
pose: 
  position: 
    x: -1.93691283927
    y: -0.662359271506
    z: -0.7892873778
  orientation: 
    x: 0.0269666811001
    y: -0.280098751033
    z: 0.00362045398418
    w: 0.959585525158
---
header: 
  seq: 172
  stamp: 
    secs: 5
    nsecs: 190004826
  frame_id: "world"
pose: 
  position: 
    x: -1.92237297863
    y: -0.655744321171
    z: -0.789823991829
  orientation: 
    x: 0.0194891712381
    y: -0.27303869013
    z: 0.0130355012908
    w: 0.961717277376
---
header: 
  seq: 173
  stamp: 
    secs: 5
    nsecs: 220005035
  frame_id: "world"
pose: 
  position: 
    x: -1.90997171908
    y: -0.651711233279
    z: -0.778524916731
  orientation: 
    x: 0.0153927432321
    y: -0.264099768165
    z: 0.018108716704
    w: 0.964202494443
---
header: 
  seq: 174
  stamp: 
    secs: 5
    nsecs: 250005245
  frame_id: "world"
pose: 
  position: 
    x: -1.89610222365
    y: -0.64930772758
    z: -0.767348280564
  orientation: 
    x: 0.0133137831867
    y: -0.254291031623
    z: 0.019783381287
    w: 0.966833714885
---
header: 
  seq: 175
  stamp: 
    secs: 5
    nsecs: 280005455
  frame_id: "world"
pose: 
  position: 
    x: -1.88474134749
    y: -0.646265762157
    z: -0.754699745214
  orientation: 
    x: 0.0138786094012
    y: -0.246170086869
    z: 0.0205573495985
    w: 0.968909215515
---
header: 
  seq: 176
  stamp: 
    secs: 5
    nsecs: 310005665
  frame_id: "world"
pose: 
  position: 
    x: -1.87046588767
    y: -0.643759496515
    z: -0.743139963545
  orientation: 
    x: 0.0144851683621
    y: -0.237432966848
    z: 0.0192896174529
    w: 0.971104359381
---
header: 
  seq: 177
  stamp: 
    secs: 5
    nsecs: 340005875
  frame_id: "world"
pose: 
  position: 
    x: -1.8547621197
    y: -0.641896793535
    z: -0.731469251683
  orientation: 
    x: 0.0104465269005
    y: -0.224123267226
    z: 0.0181648097969
    w: 0.974335502201
---
header: 
  seq: 178
  stamp: 
    secs: 5
    nsecs: 370006084
  frame_id: "world"
pose: 
  position: 
    x: -1.83909263814
    y: -0.639559969689
    z: -0.719962376064
  orientation: 
    x: 0.00601864073242
    y: -0.211372135857
    z: 0.0167884663907
    w: 0.977242929646
---
header: 
  seq: 179
  stamp: 
    secs: 5
    nsecs: 400006294
  frame_id: "world"
pose: 
  position: 
    x: -1.82347086662
    y: -0.638848000382
    z: -0.709106518446
  orientation: 
    x: 0.00452115040894
    y: -0.202280138802
    z: 0.0140520556766
    w: 0.97921644409
---
header: 
  seq: 180
  stamp: 
    secs: 5
    nsecs: 430006504
  frame_id: "world"
pose: 
  position: 
    x: -1.80808129059
    y: -0.637516480611
    z: -0.69712832804
  orientation: 
    x: 0.00438420293272
    y: -0.192319199498
    z: 0.0114406806235
    w: 0.981255937611
---
header: 
  seq: 181
  stamp: 
    secs: 5
    nsecs: 460006714
  frame_id: "world"
pose: 
  position: 
    x: -1.79204635609
    y: -0.636468268516
    z: -0.684985659091
  orientation: 
    x: 0.000232526501213
    y: -0.181015310748
    z: 0.0107998383471
    w: 0.983420950915
---
header: 
  seq: 182
  stamp: 
    secs: 5
    nsecs: 490006924
  frame_id: "world"
pose: 
  position: 
    x: -1.77597634595
    y: -0.634852303287
    z: -0.672725170701
  orientation: 
    x: -0.00969662552376
    y: -0.166486508467
    z: 0.0124672428604
    w: 0.985917230708
---
header: 
  seq: 183
  stamp: 
    secs: 5
    nsecs: 520007133
  frame_id: "world"
pose: 
  position: 
    x: -1.75960861094
    y: -0.634429904694
    z: -0.661557237642
  orientation: 
    x: -0.0221463004669
    y: -0.150867602557
    z: 0.013699183665
    w: 0.988210929023
---
header: 
  seq: 184
  stamp: 
    secs: 5
    nsecs: 550007343
  frame_id: "world"
pose: 
  position: 
    x: -1.74413659833
    y: -0.635831325746
    z: -0.65040456108
  orientation: 
    x: -0.0243798939036
    y: -0.136276561182
    z: 0.0124542749839
    w: 0.99029248744
---
header: 
  seq: 185
  stamp: 
    secs: 5
    nsecs: 580007553
  frame_id: "world"
pose: 
  position: 
    x: -1.73054740206
    y: -0.638102220185
    z: -0.638414006982
  orientation: 
    x: -0.0224758724232
    y: -0.121822045303
    z: 0.0127244186499
    w: 0.992215860389
---
header: 
  seq: 186
  stamp: 
    secs: 5
    nsecs: 610007763
  frame_id: "world"
pose: 
  position: 
    x: -1.71835797132
    y: -0.640170889587
    z: -0.626349292349
  orientation: 
    x: -0.0228256068314
    y: -0.112821283513
    z: 0.017684596467
    w: 0.993195652783
---
header: 
  seq: 187
  stamp: 
    secs: 5
    nsecs: 640007973
  frame_id: "world"
pose: 
  position: 
    x: -1.70716932157
    y: -0.642523246475
    z: -0.614038360006
  orientation: 
    x: -0.0235416972172
    y: -0.108000508641
    z: 0.0215744759599
    w: 0.99363787197
---
header: 
  seq: 188
  stamp: 
    secs: 5
    nsecs: 670008183
  frame_id: "world"
pose: 
  position: 
    x: -1.69315341522
    y: -0.646743474025
    z: -0.599752318223
  orientation: 
    x: -0.0215704554765
    y: -0.0992536053138
    z: 0.0183866776336
    w: 0.994658417432
---
header: 
  seq: 189
  stamp: 
    secs: 5
    nsecs: 700008392
  frame_id: "world"
pose: 
  position: 
    x: -1.68148844627
    y: -0.650324829259
    z: -0.586829331097
  orientation: 
    x: -0.0188133176514
    y: -0.0876208550263
    z: 0.0115673036301
    w: 0.995909053242
---
header: 
  seq: 190
  stamp: 
    secs: 5
    nsecs: 730008602
  frame_id: "world"
pose: 
  position: 
    x: -1.68160591404
    y: -0.643519410011
    z: -0.573800278313
  orientation: 
    x: -0.0133923109407
    y: -0.0758921474218
    z: 0.0107834011556
    w: 0.996967775922
---
header: 
  seq: 191
  stamp: 
    secs: 5
    nsecs: 760008812
  frame_id: "world"
pose: 
  position: 
    x: -1.66983025232
    y: -0.648283668238
    z: -0.560283945789
  orientation: 
    x: -0.0056521487778
    y: -0.0633311548664
    z: 0.00359670433995
    w: 0.997970080591
---
header: 
  seq: 192
  stamp: 
    secs: 5
    nsecs: 790009022
  frame_id: "world"
pose: 
  position: 
    x: -1.6579323994
    y: -0.65412456266
    z: -0.546617541663
  orientation: 
    x: 0.00062497639147
    y: -0.051267869635
    z: -0.0022326430842
    w: 0.99868224689
---
header: 
  seq: 193
  stamp: 
    secs: 5
    nsecs: 820009232
  frame_id: "world"
pose: 
  position: 
    x: -1.64608923301
    y: -0.660030765314
    z: -0.53284841899
  orientation: 
    x: 0.00625424186808
    y: -0.041836384241
    z: -0.00479988639842
    w: 0.999093370263
---
header: 
  seq: 194
  stamp: 
    secs: 5
    nsecs: 850009441
  frame_id: "world"
pose: 
  position: 
    x: -1.63476855067
    y: -0.665983459503
    z: -0.518716752558
  orientation: 
    x: 0.0148763772167
    y: -0.0324588478882
    z: -0.00415866692326
    w: 0.999353702192
---
header: 
  seq: 195
  stamp: 
    secs: 5
    nsecs: 880009651
  frame_id: "world"
pose: 
  position: 
    x: -1.62388153508
    y: -0.671784540084
    z: -0.504606193642
  orientation: 
    x: 0.0233981318416
    y: -0.0229082534697
    z: -0.00154097870707
    w: 0.999462537934
---
header: 
  seq: 196
  stamp: 
    secs: 5
    nsecs: 910009861
  frame_id: "world"
pose: 
  position: 
    x: -1.61415787573
    y: -0.67881857706
    z: -0.490387983308
  orientation: 
    x: 0.0303367794138
    y: -0.0159646420712
    z: 0.0010621193755
    w: 0.999411667893
---
header: 
  seq: 197
  stamp: 
    secs: 5
    nsecs: 940010071
  frame_id: "world"
pose: 
  position: 
    x: -1.6056791989
    y: -0.685176408927
    z: -0.479010754438
  orientation: 
    x: 0.0332264742688
    y: -0.0132895942384
    z: 0.0020860615325
    w: 0.999357311696
---
header: 
  seq: 198
  stamp: 
    secs: 5
    nsecs: 970010281
  frame_id: "world"
pose: 
  position: 
    x: -1.59782346226
    y: -0.691915975837
    z: -0.466619452896
  orientation: 
    x: 0.0358552345603
    y: -0.0131640919805
    z: -0.00220536123262
    w: 0.999267854591
---
header: 
  seq: 199
  stamp: 
    secs: 6
    nsecs:     10490
  frame_id: "world"
pose: 
  position: 
    x: -1.59081528745
    y: -0.699228167258
    z: -0.454425606344
  orientation: 
    x: 0.0401231494781
    y: -0.0088790312252
    z: -0.0113569321521
    w: 0.999090744514
---
header: 
  seq: 200
  stamp: 
    secs: 6
    nsecs:  30010700
  frame_id: "world"
pose: 
  position: 
    x: -1.58427091092
    y: -0.70693898781
    z: -0.443449410194
  orientation: 
    x: 0.0430790703571
    y: -0.00382050882965
    z: -0.0205739266777
    w: 0.998852497094
---
header: 
  seq: 201
  stamp: 
    secs: 6
    nsecs:  60010910
  frame_id: "world"
pose: 
  position: 
    x: -1.5834789531
    y: -0.702879160187
    z: -0.435081806572
  orientation: 
    x: 0.0447283246713
    y: -0.00195617619163
    z: -0.0203930668139
    w: 0.998789103451
---
header: 
  seq: 202
  stamp: 
    secs: 6
    nsecs:  90011120
  frame_id: "world"
pose: 
  position: 
    x: -1.58030873268
    y: -0.710088320704
    z: -0.42358671904
  orientation: 
    x: 0.0467606636126
    y: -0.00604697397635
    z: -0.0243362152908
    w: 0.998591319344
---
header: 
  seq: 203
  stamp: 
    secs: 6
    nsecs: 120011330
  frame_id: "world"
pose: 
  position: 
    x: -1.57760186112
    y: -0.716966003909
    z: -0.411924154812
  orientation: 
    x: 0.0499646819083
    y: -0.011303089165
    z: -0.0239512072179
    w: 0.998399774845
---
header: 
  seq: 204
  stamp: 
    secs: 6
    nsecs: 150011539
  frame_id: "world"
pose: 
  position: 
    x: -1.5760142554
    y: -0.725157684089
    z: -0.400193667027
  orientation: 
    x: 0.0579255507086
    y: -0.0145330479814
    z: -0.0244783361349
    w: 0.997914942343
---
header: 
  seq: 205
  stamp: 
    secs: 6
    nsecs: 180011749
  frame_id: "world"
pose: 
  position: 
    x: -1.57395629492
    y: -0.732801942117
    z: -0.388242581635
  orientation: 
    x: 0.0669686341857
    y: -0.0132984488718
    z: -0.0244711754286
    w: 0.997366289217
---
header: 
  seq: 206
  stamp: 
    secs: 6
    nsecs: 210011959
  frame_id: "world"
pose: 
  position: 
    x: -1.57445637937
    y: -0.741082218993
    z: -0.37538113127
  orientation: 
    x: 0.075764462936
    y: -0.011854644941
    z: -0.0221924961593
    w: 0.996808259729
---
header: 
  seq: 207
  stamp: 
    secs: 6
    nsecs: 240012169
  frame_id: "world"
pose: 
  position: 
    x: -1.57544931481
    y: -0.74862201041
    z: -0.36242262742
  orientation: 
    x: 0.0842028650597
    y: -0.0126234295607
    z: -0.0188842590593
    w: 0.996189696444
---
header: 
  seq: 208
  stamp: 
    secs: 6
    nsecs: 270012379
  frame_id: "world"
pose: 
  position: 
    x: -1.57762241617
    y: -0.756201135097
    z: -0.349025995025
  orientation: 
    x: 0.0923761741132
    y: -0.0131816058769
    z: -0.0167037809994
    w: 0.99549679629
---
header: 
  seq: 209
  stamp: 
    secs: 6
    nsecs: 300012589
  frame_id: "world"
pose: 
  position: 
    x: -1.58076239564
    y: -0.763048845635
    z: -0.335378953413
  orientation: 
    x: 0.0985329013528
    y: -0.0154535669342
    z: -0.0137444952664
    w: 0.994918862757
---
header: 
  seq: 210
  stamp: 
    secs: 6
    nsecs: 330012798
  frame_id: "world"
pose: 
  position: 
    x: -1.58466994679
    y: -0.769596012877
    z: -0.32139853092
  orientation: 
    x: 0.100734812683
    y: -0.0206884524757
    z: -0.00905070241092
    w: 0.994657011353
---
header: 
  seq: 211
  stamp: 
    secs: 6
    nsecs: 360013008
  frame_id: "world"
pose: 
  position: 
    x: -1.58905107135
    y: -0.776314248033
    z: -0.307472349848
  orientation: 
    x: 0.098830288182
    y: -0.0212277275302
    z: -0.00231142282119
    w: 0.994875175611
---
header: 
  seq: 212
  stamp: 
    secs: 6
    nsecs: 390013218
  frame_id: "world"
pose: 
  position: 
    x: -1.5928342379
    y: -0.783797465479
