header: 
  seq: 165
  stamp: 
    secs: 1363639130
    nsecs: 343500305
  frame_id: "world"
pose: 
  position: 
    x: 0.529354095459
    y: -1.34793376923
    z: 1.28756904602
  orientation: 
    x: 0.114625155926
    y: -0.0585671961308
    z: -0.970442414284
    w: 0.204138219357
---
header: 
  seq: 166
  stamp: 
    secs: 1363639130
    nsecs: 376893535
  frame_id: "world"
pose: 
  position: 
    x: 0.529407024384
    y: -1.33968162537
    z: 1.28807044029
  orientation: 
    x: 0.114454552531
    y: -0.0586864762008
    z: -0.97090947628
    w: 0.201967388391
---
header: 
  seq: 167
  stamp: 
    secs: 1363639130
    nsecs: 410199588
  frame_id: "world"
pose: 
  position: 
    x: 0.529550552368
    y: -1.33136022091
    z: 1.28849816322
  orientation: 
    x: 0.115429550409
    y: -0.0585120841861
    z: -0.971233725548
    w: 0.199893862009
---
header: 
  seq: 168
  stamp: 
    secs: 1363639130
    nsecs: 443613024
  frame_id: "world"
pose: 
  position: 
    x: 0.529411137104
    y: -1.32280695438
    z: 1.28909564018
  orientation: 
    x: 0.114841155708
    y: -0.0589894242585
    z: -0.971775352955
    w: 0.197444558144
---
header: 
  seq: 169
  stamp: 
    secs: 1363639130
    nsecs: 468508798
  frame_id: "world"
pose: 
  position: 
    x: 0.529208123684
    y: -1.31618356705
    z: 1.28976666927
  orientation: 
    x: 0.113742358983
    y: -0.0592280440032
    z: -0.972309947014
    w: 0.195366606116
---
header: 
  seq: 170
  stamp: 
    secs: 1363639130
    nsecs: 501826292
  frame_id: "world"
pose: 
  position: 
    x: 0.529155910015
    y: -1.30714821815
    z: 1.29040575027
  orientation: 
    x: 0.11407468468
    y: -0.0593792200089
    z: -0.972805500031
    w: 0.192640990019
---
header: 
  seq: 171
  stamp: 
    secs: 1363639130
    nsecs: 526890578
  frame_id: "world"
pose: 
  position: 
    x: 0.529381930828
    y: -1.3003205061
    z: 1.29088366032
  orientation: 
    x: 0.115640573204
    y: -0.0595476925373
    z: -0.973001360893
    w: 0.190655812621
---
header: 
  seq: 172
  stamp: 
    secs: 1363639130
    nsecs: 560201512
  frame_id: "world"
pose: 
  position: 
    x: 0.529188811779
    y: -1.29107987881
    z: 1.2920255661
  orientation: 
    x: 0.113563477993
    y: -0.0603633597493
    z: -0.973632395267
    w: 0.188413530588
---
header: 
  seq: 173
  stamp: 
    secs: 1363639130
    nsecs: 593615405
  frame_id: "world"
pose: 
  position: 
    x: 0.529390573502
    y: -1.28133058548
    z: 1.29284965992
  orientation: 
    x: 0.115633949637
    y: -0.0608536377549
    z: -0.973944365978
    w: 0.18535874784
---
header: 
  seq: 174
  stamp: 
    secs: 1363639130
    nsecs: 635239904
  frame_id: "world"
pose: 
  position: 
    x: 0.529431939125
    y: -1.26901876926
    z: 1.29452705383
  orientation: 
    x: 0.115305863321
    y: -0.0620390549302
    z: -0.974560856819
    w: 0.181897953153
---
header: 
  seq: 175
  stamp: 
    secs: 1363639130
    nsecs: 668422768
  frame_id: "world"
pose: 
  position: 
    x: 0.529167234898
    y: -1.25900840759
    z: 1.29626142979
  orientation: 
    x: 0.112615533173
    y: -0.063190177083
    z: -0.975313842297
    w: 0.179129958153
---
header: 
  seq: 176
  stamp: 
    secs: 1363639130
    nsecs: 693595639
  frame_id: "world"
pose: 
  position: 
    x: 0.5296895504
    y: -1.25147664547
    z: 1.2972881794
  orientation: 
    x: 0.114405207336
    y: -0.0631496459246
    z: -0.975497603416
    w: 0.176996827126
---
header: 
  seq: 177
  stamp: 
    secs: 1363639130
    nsecs: 726825042
  frame_id: "world"
pose: 
  position: 
    x: 0.529748678207
    y: -1.24134588242
    z: 1.29903912544
  orientation: 
    x: 0.11352597177
    y: -0.0631718039513
    z: -0.976132512093
    w: 0.174030199647
---
header: 
  seq: 178
  stamp: 
    secs: 1363639130
    nsecs: 751822930
  frame_id: "world"
pose: 
  position: 
    x: 0.529822945595
    y: -1.23376786709
    z: 1.30032730103
  orientation: 
    x: 0.112915530801
    y: -0.0632229596376
    z: -0.97664052248
    w: 0.171541154385
---
header: 
  seq: 179
  stamp: 
    secs: 1363639130
    nsecs: 785120369
  frame_id: "world"
pose: 
  position: 
    x: 0.529845893383
    y: -1.22351539135
    z: 1.30202889442
  orientation: 
    x: 0.111789248884
    y: -0.0632318407297
    z: -0.977368056774
    w: 0.168096899986
---
header: 
  seq: 180
  stamp: 
    secs: 1363639130
    nsecs: 835145352
  frame_id: "world"
pose: 
  position: 
    x: 0.529792428017
    y: -1.20815932751
    z: 1.30401778221
  orientation: 
    x: 0.111495055258
    y: -0.062452249229
    z: -0.978385150433
    w: 0.162576168776
---
header: 
  seq: 181
  stamp: 
    secs: 1363639130
    nsecs: 860250204
  frame_id: "world"
pose: 
  position: 
    x: 0.529719471931
    y: -1.20027947426
    z: 1.30501377583
  orientation: 
    x: 0.110959656537
    y: -0.0622421763837
    z: -0.978833377361
    w: 0.160309389234
---
header: 
  seq: 182
  stamp: 
    secs: 1363639130
    nsecs: 885057810
  frame_id: "world"
pose: 
  position: 
    x: 0.529622972012
    y: -1.19239425659
    z: 1.30579125881
  orientation: 
    x: 0.111736267805
    y: -0.0619920939207
    z: -0.979198157787
    w: 0.157616794109
---
header: 
  seq: 183
  stamp: 
    secs: 1363639130
    nsecs: 926911863
  frame_id: "world"
pose: 
  position: 
    x: 0.528944194317
    y: -1.17886352539
    z: 1.30719995499
  orientation: 
    x: 0.111670129001
    y: -0.0629349797964
    z: -0.979822337627
    w: 0.153352737427
---
header: 
  seq: 184
  stamp: 
    secs: 1363639130
    nsecs: 968598397
  frame_id: "world"
pose: 
  position: 
    x: 0.528499245644
    y: -1.16550469398
    z: 1.30870819092
  orientation: 
    x: 0.111131429672
    y: -0.0639883726835
    z: -0.980447888374
    w: 0.149255231023
---
header: 
  seq: 185
  stamp: 
    secs: 1363639131
    nsecs:  10072984
  frame_id: "world"
pose: 
  position: 
    x: 0.527798056602
    y: -1.15193772316
    z: 1.31002771854
  orientation: 
    x: 0.111380390823
    y: -0.0647657066584
    z: -0.980905532837
    w: 0.145685181022
---
header: 
  seq: 186
  stamp: 
    secs: 1363639131
    nsecs:  35124447
  frame_id: "world"
pose: 
  position: 
    x: 0.527333319187
    y: -1.1437895298
    z: 1.31073987484
  orientation: 
    x: 0.110893025994
    y: -0.064922682941
    z: -0.981330513954
    w: 0.143101975322
---
header: 
  seq: 187
  stamp: 
    secs: 1363639131
    nsecs:  68467777
  frame_id: "world"
pose: 
  position: 
    x: 0.526478052139
    y: -1.13295698166
    z: 1.31168210506
  orientation: 
    x: 0.110401056707
    y: -0.0664972439408
    z: -0.981687963009
    w: 0.140280023217
---
header: 
  seq: 188
  stamp: 
    secs: 1363639131
    nsecs: 101907849
  frame_id: "world"
pose: 
  position: 
    x: 0.525476396084
    y: -1.12219917774
    z: 1.3125859499
  orientation: 
    x: 0.110724106431
    y: -0.0679271072149
    z: -0.981958448887
    w: 0.137417763472
---
header: 
  seq: 189
  stamp: 
    secs: 1363639131
    nsecs: 126831374
  frame_id: "world"
pose: 
  position: 
    x: 0.524649977684
    y: -1.11414539814
    z: 1.31333100796
  orientation: 
    x: 0.109184771776
    y: -0.0688039809465
    z: -0.982375562191
    w: 0.135214582086
---
header: 
  seq: 190
  stamp: 
    secs: 1363639131
    nsecs: 168583245
  frame_id: "world"
pose: 
  position: 
    x: 0.523104906082
    y: -1.10070037842
    z: 1.31439352036
  orientation: 
    x: 0.112589858472
    y: -0.0700644105673
    z: -0.982463181019
    w: 0.131075114012
---
header: 
  seq: 191
  stamp: 
    secs: 1363639131
    nsecs: 210244963
  frame_id: "world"
pose: 
  position: 
    x: 0.520741641521
    y: -1.08739340305
    z: 1.31603991985
  orientation: 
    x: 0.109913758934
    y: -0.071070574224
    z: -0.983159303665
    w: 0.127537041903
---
header: 
  seq: 192
  stamp: 
    secs: 1363639131
    nsecs: 243580388
  frame_id: "world"
pose: 
  position: 
    x: 0.518436610699
    y: -1.07658016682
    z: 1.31731939316
  orientation: 
    x: 0.109793201089
    y: -0.0712021961808
    z: -0.983649671078
    w: 0.123729281127
---
header: 
  seq: 193
  stamp: 
    secs: 1363639131
    nsecs: 276932552
  frame_id: "world"
pose: 
  position: 
    x: 0.515807688236
    y: -1.0654270649
    z: 1.31845009327
  orientation: 
    x: 0.106862075627
    y: -0.0707578361034
    z: -0.984494268894
    w: 0.119769841433
---
header: 
  seq: 194
  stamp: 
    secs: 1363639131
    nsecs: 301935110
  frame_id: "world"
pose: 
  position: 
    x: 0.513507127762
    y: -1.05702328682
    z: 1.31862568855
  orientation: 
    x: 0.106885820627
    y: -0.0689973682165
    z: -0.985072255135
    w: 0.11596275866
---
header: 
  seq: 195
  stamp: 
    secs: 1363639131
    nsecs: 335223035
  frame_id: "world"
pose: 
  position: 
    x: 0.509493529797
    y: -1.04533267021
    z: 1.31784141064
  orientation: 
    x: 0.10851046443
    y: -0.06545432657
    z: -0.985826432705
    w: 0.109942808747
---
header: 
  seq: 196
  stamp: 
    secs: 1363639131
    nsecs: 360264051
  frame_id: "world"
pose: 
  position: 
    x: 0.506083130836
    y: -1.03658735752
    z: 1.31763315201
  orientation: 
    x: 0.108139380813
    y: -0.0631621703506
    z: -0.986477732658
    w: 0.105726897717
---
header: 
  seq: 197
  stamp: 
    secs: 1363639131
    nsecs: 393623575
  frame_id: "world"
pose: 
  position: 
    x: 0.501402795315
    y: -1.0248529911
    z: 1.31679606438
  orientation: 
    x: 0.109671130776
    y: -0.0614848285913
    z: -0.986936628819
    w: 0.100737042725
---
header: 
  seq: 198
  stamp: 
    secs: 1363639131
    nsecs: 418707725
  frame_id: "world"
pose: 
  position: 
    x: 0.49795371294
    y: -1.01616239548
    z: 1.31671369076
  orientation: 
    x: 0.109596222639
    y: -0.062270950526
    z: -0.987170100212
    w: 0.0980117991567
---
header: 
  seq: 199
  stamp: 
    secs: 1363639131
    nsecs: 451869221
  frame_id: "world"
pose: 
  position: 
    x: 0.493153333664
    y: -1.0047968626
    z: 1.31717455387
  orientation: 
    x: 0.109083898365
    y: -0.0658676400781
    z: -0.987236380577
    w: 0.0955322310328
---
header: 
  seq: 200
  stamp: 
    secs: 1363639131
    nsecs: 476747965
  frame_id: "world"
pose: 
  position: 
    x: 0.489620476961
    y: -0.99653917551
    z: 1.31785166264
  orientation: 
    x: 0.110045194626
    y: -0.0692168623209
    z: -0.986936032772
    w: 0.0951643362641
---
header: 
  seq: 201
  stamp: 
    secs: 1363639131
    nsecs: 510282376
  frame_id: "world"
pose: 
  position: 
    x: 0.484496682882
    y: -0.985805690289
    z: 1.31916344166
  orientation: 
    x: 0.109469354153
    y: -0.0737397968769
    z: -0.986824035645
    w: 0.0935799181461
---
header: 
  seq: 202
  stamp: 
    secs: 1363639131
    nsecs: 543640302
  frame_id: "world"
pose: 
  position: 
    x: 0.479158937931
    y: -0.975601613522
    z: 1.32083654404
  orientation: 
    x: 0.108767725527
    y: -0.0768277496099
    z: -0.986785531044
    w: 0.0923113152385
---
header: 
  seq: 203
  stamp: 
    secs: 1363639131
    nsecs: 576933478
  frame_id: "world"
pose: 
  position: 
    x: 0.472216725349
    y: -0.963290154934
    z: 1.32495641708
  orientation: 
    x: 0.0898443609476
    y: -0.0815856009722
    z: -0.989310026169
    w: 0.080853946507
---
header: 
  seq: 204
  stamp: 
    secs: 1363639131
    nsecs: 610337834
  frame_id: "world"
pose: 
  position: 
    x: 0.467041134834
    y: -0.955420672894
    z: 1.32390451431
  orientation: 
    x: 0.108590528369
    y: -0.0773534104228
    z: -0.987435638905
    w: 0.0848256200552
---
header: 
  seq: 205
  stamp: 
    secs: 1363639131
    nsecs: 651972974
  frame_id: "world"
pose: 
  position: 
    x: 0.458103567362
    y: -0.943546414375
    z: 1.3257600069
  orientation: 
    x: 0.10751131922
    y: -0.0744702666998
    z: -0.98826700449
    w: 0.0788922831416
---
header: 
  seq: 206
  stamp: 
    secs: 1363639131
    nsecs: 677003349
  frame_id: "world"
pose: 
  position: 
    x: 0.452491641045
    y: -0.936615467072
    z: 1.32703185081
  orientation: 
    x: 0.106403194368
    y: -0.0723981112242
    z: -0.988804221153
    w: 0.0755189731717
---
header: 
  seq: 207
  stamp: 
    secs: 1363639131
    nsecs: 701993608
  frame_id: "world"
pose: 
  position: 
    x: 0.446780174971
    y: -0.930211246014
    z: 1.32830953598
  orientation: 
    x: 0.10567099601
    y: -0.0703822746873
    z: -0.989259600639
    w: 0.0724251195788
---
header: 
  seq: 208
  stamp: 
    secs: 1363639131
    nsecs: 735318032
  frame_id: "world"
pose: 
  position: 
    x: 0.439064979553
    y: -0.922115921974
    z: 1.32971215248
  orientation: 
    x: 0.105682589114
    y: -0.0681547448039
    z: -0.989706337452
    w: 0.0683196783066
---
header: 
  seq: 209
  stamp: 
    secs: 1363639131
    nsecs: 760312221
  frame_id: "world"
pose: 
  position: 
    x: 0.432823687792
    y: -0.916276216507
    z: 1.33078670502
  orientation: 
    x: 0.107157401741
    y: -0.0670595914125
    z: -0.989801585674
    w: 0.0656745359302
---
header: 
  seq: 210
  stamp: 
    secs: 1363639131
    nsecs: 793497333
  frame_id: "world"
pose: 
  position: 
    x: 0.424291789532
    y: -0.908897519112
    z: 1.3323135376
  orientation: 
    x: 0.106893435121
    y: -0.0671987757087
    z: -0.99001532793
    w: 0.0626726672053
---
header: 
  seq: 211
  stamp: 
    secs: 1363639131
    nsecs: 827051856
  frame_id: "world"
pose: 
  position: 
    x: 0.415686100721
    y: -0.902072429657
    z: 1.33427393436
  orientation: 
    x: 0.106460653245
    y: -0.0682182461023
    z: -0.990113198757
    w: 0.0607315823436
---
header: 
  seq: 212
  stamp: 
    secs: 1363639131
    nsecs: 851932418
  frame_id: "world"
pose: 
  position: 
    x: 0.409104496241
    y: -0.897296965122
    z: 1.33576357365
  orientation: 
    x: 0.106389202178
    y: -0.06953907758
    z: -0.990101993084
    w: 0.0595298595726
---
header: 
  seq: 213
  stamp: 
    secs: 1363639131
    nsecs: 876981445
  frame_id: "world"
pose: 
  position: 
    x: 0.402598649263
    y: -0.892530143261
    z: 1.3375544548
  orientation: 
    x: 0.105876050889
    y: -0.0714831203222
    z: -0.990072548389
    w: 0.0586238913238
---
header: 
  seq: 214
  stamp: 
    secs: 1363639131
    nsecs: 901995690
  frame_id: "world"
pose: 
  position: 
    x: 0.396125555038
    y: -0.888230383396
    z: 1.33902597427
  orientation: 
    x: 0.105959258974
    y: -0.0733373686671
    z: -0.989978671074
    w: 0.0577628612518
---
header: 
  seq: 215
  stamp: 
    secs: 1363639131
    nsecs: 935315872
  frame_id: "world"
pose: 
  position: 
    x: 0.38727837801
    y: -0.882968842983
    z: 1.34119510651
  orientation: 
    x: 0.105025760829
    y: -0.0757449865341
    z: -0.989934563637
    w: 0.0571136847138
---
header: 
  seq: 216
  stamp: 
    secs: 1363639131
    nsecs: 961290501
  frame_id: "world"
pose: 
  position: 
    x: 0.380534529686
    y: -0.879205346107
    z: 1.342897892
  orientation: 
    x: 0.105819694698
    y: -0.0768455266953
    z: -0.989797949791
    w: 0.0565415546298
---
header: 
  seq: 217
  stamp: 
    secs: 1363639132
    nsecs:   1942797
  frame_id: "world"
pose: 
  position: 
    x: 0.368905842304
    y: -0.873071432114
    z: 1.34561634064
  orientation: 
    x: 0.10502692312
    y: -0.0775510594249
    z: -0.989940345287
    w: 0.0545281618834
---
header: 
  seq: 218
  stamp: 
    secs: 1363639132
    nsecs:  51845353
  frame_id: "world"
pose: 
  position: 
    x: 0.354649484158
    y: -0.865852117538
    z: 1.34846329689
  orientation: 
    x: 0.10645994544
    y: -0.0773490965366
    z: -0.989960253239
    w: 0.0515939593315
---
header: 
  seq: 219
  stamp: 
    secs: 1363639132
    nsecs:  76909284
  frame_id: "world"
pose: 
  position: 
    x: 0.347612798214
    y: -0.862778484821
    z: 1.35026013851
  orientation: 
    x: 0.105931855738
    y: -0.0778426229954
    z: -0.990036785603
    w: 0.0504596084356
---
header: 
  seq: 220
  stamp: 
    secs: 1363639132
    nsecs: 110338650
  frame_id: "world"
pose: 
  position: 
    x: 0.33822825551
    y: -0.859118402004
    z: 1.35250592232
  orientation: 
    x: 0.105124309659
    y: -0.0786675959826
    z: -0.990101099014
    w: 0.0495995469391
---
header: 
  seq: 221
  stamp: 
    secs: 1363639132
    nsecs: 135353452
  frame_id: "world"
pose: 
  position: 
    x: 0.331132680178
    y: -0.856737494469
    z: 1.35416948795
  orientation: 
    x: 0.104507096112
    y: -0.0792617797852
    z: -0.990147471428
    w: 0.0490283817053
---
header: 
  seq: 222
  stamp: 
    secs: 1363639132
    nsecs: 176984771
  frame_id: "world"
pose: 
  position: 
    x: 0.319012641907
    y: -0.853223562241
    z: 1.35659456253
  orientation: 
    x: 0.105095483363
    y: -0.0796881392598
    z: -0.990115404129
    w: 0.0477105081081
---
header: 
  seq: 223
  stamp: 
    secs: 1363639132
    nsecs: 218634645
  frame_id: "world"
pose: 
  position: 
    x: 0.30663639307
    y: -0.850250422955
    z: 1.35868871212
  orientation: 
    x: 0.105261802673
    y: -0.0792927443981
    z: -0.990197300911
    w: 0.0462807118893
---
header: 
  seq: 224
  stamp: 
    secs: 1363639132
    nsecs: 243632751
  frame_id: "world"
pose: 
  position: 
    x: 0.299117982388
    y: -0.848882257938
    z: 1.35993862152
  orientation: 
    x: 0.105609178543
    y: -0.0789543837309
    z: -0.990223109722
    w: 0.0455095171928
---
header: 
  seq: 225
  stamp: 
    secs: 1363639132
    nsecs: 285295514
  frame_id: "world"
pose: 
  position: 
    x: 0.2868309021
    y: -0.847288131714
    z: 1.36214125156
  orientation: 
    x: 0.106167681515
    y: -0.0796225368977
    z: -0.990125238895
    w: 0.0451746024191
---
header: 
  seq: 226
  stamp: 
    secs: 1363639132
    nsecs: 310277146
  frame_id: "world"
pose: 
  position: 
    x: 0.279490947723
    y: -0.846705317497
    z: 1.36353302002
  orientation: 
    x: 0.105604954064
    y: -0.0803026333451
    z: -0.990131080151
    w: 0.0451609417796
---
header: 
  seq: 227
  stamp: 
    secs: 1363639132
    nsecs: 343643575
  frame_id: "world"
pose: 
  position: 
    x: 0.270011305809
    y: -0.846499025822
    z: 1.36557018757
  orientation: 
    x: 0.105501122773
    y: -0.0818312093616
    z: -0.989993274212
    w: 0.0456790141761
---
header: 
  seq: 228
  stamp: 
    secs: 1363639132
    nsecs: 368648589
  frame_id: "world"
pose: 
  position: 
    x: 0.263089030981
    y: -0.846695661545
    z: 1.36704909801
  orientation: 
    x: 0.106376811862
    y: -0.0826491117477
    z: -0.989795506001
    w: 0.0464538559318
---
header: 
  seq: 229
  stamp: 
    secs: 1363639132
    nsecs: 410276196
  frame_id: "world"
pose: 
  position: 
    x: 0.251865386963
    y: -0.847586989403
    z: 1.37003326416
  orientation: 
    x: 0.105834141374
    y: -0.0845820754766
    z: -0.989631712437
    w: 0.0476868264377
---
header: 
  seq: 230
  stamp: 
    secs: 1363639132
    nsecs: 435238294
  frame_id: "world"
pose: 
  position: 
    x: 0.245345294476
    y: -0.848491251469
    z: 1.37187290192
  orientation: 
    x: 0.105761326849
    y: -0.0855679884553
    z: -0.989520192146
    w: 0.04839893803
---
header: 
  seq: 231
  stamp: 
    secs: 1363639132
    nsecs: 468664611
  frame_id: "world"
pose: 
  position: 
    x: 0.236875772476
    y: -0.850097715855
    z: 1.37425100803
  orientation: 
    x: 0.106003306806
    y: -0.0861461833119
    z: -0.989388585091
    w: 0.0495216399431
---
header: 
  seq: 232
  stamp: 
    secs: 1363639132
    nsecs: 493660358
  frame_id: "world"
pose: 
  position: 
    x: 0.230703696609
    y: -0.851426064968
    z: 1.37600028515
  orientation: 
    x: 0.105588659644
    y: -0.086327932775
    z: -0.989393413067
    w: 0.0499905720353
---
header: 
  seq: 233
  stamp: 
    secs: 1363639132
    nsecs: 535266932
  frame_id: "world"
pose: 
  position: 
    x: 0.220703229308
    y: -0.854468584061
    z: 1.37886857986
  orientation: 
    x: 0.10537365824
    y: -0.085880279541
    z: -0.989418447018
    w: 0.0507169999182
---
header: 
  seq: 234
  stamp: 
    secs: 1363639132
    nsecs: 560333541
  frame_id: "world"
pose: 
  position: 
    x: 0.214834213257
    y: -0.856780171394
    z: 1.38033568859
  orientation: 
    x: 0.105854384601
    y: -0.0847951173782
    z: -0.989430546761
    w: 0.0513007231057
---
header: 
  seq: 235
  stamp: 
    secs: 1363639132
    nsecs: 602315950
  frame_id: "world"
pose: 
  position: 
    x: 0.205208793283
    y: -0.861181616783
    z: 1.38260686398
  orientation: 
    x: 0.10700943321
    y: -0.0830463469028
    z: -0.989397108555
    w: 0.0524000041187
---
header: 
  seq: 236
  stamp: 
    secs: 1363639132
    nsecs: 635278185
  frame_id: "world"
pose: 
  position: 
    x: 0.197326734662
    y: -0.864931464195
    z: 1.38423454762
  orientation: 
    x: 0.107858970761
    y: -0.0820181071758
    z: -0.989340960979
    w: 0.0533294454217
---
header: 
  seq: 237
  stamp: 
    secs: 1363639132
    nsecs: 660269025
  frame_id: "world"
pose: 
  position: 
    x: 0.19140149653
    y: -0.867708325386
    z: 1.38584971428
  orientation: 
    x: 0.107109040022
    y: -0.0819630026817
    z: -0.989391684532
    w: 0.053978793323
---
header: 
  seq: 238
  stamp: 
    secs: 1363639132
    nsecs: 694586644
  frame_id: "world"
pose: 
  position: 
    x: 0.183331787586
    y: -0.87174230814
    z: 1.38783562183
  orientation: 
    x: 0.107574410737
    y: -0.0815518498421
    z: -0.989320456982
    w: 0.0549740158021
---
header: 
  seq: 239
  stamp: 
    secs: 1363639132
    nsecs: 718551887
  frame_id: "world"
pose: 
  position: 
    x: 0.177393198013
    y: -0.874976396561
    z: 1.38941347599
  orientation: 
    x: 0.107830911875
    y: -0.0810958445072
    z: -0.989251554012
    w: 0.0563677288592
---
header: 
  seq: 240
  stamp: 
    secs: 1363639132
    nsecs: 751984678
  frame_id: "world"
pose: 
  position: 
    x: 0.169451221824
    y: -0.879591047764
    z: 1.39165377617
  orientation: 
    x: 0.107552595437
    y: -0.0814590528607
    z: -0.989173412323
    w: 0.0577310733497
---
header: 
  seq: 241
  stamp: 
    secs: 1363639132
    nsecs: 776992775
  frame_id: "world"
pose: 
  position: 
    x: 0.163796007633
    y: -0.883258402348
    z: 1.39387238026
  orientation: 
    x: 0.107998467982
    y: -0.0820976570249
    z: -0.988950908184
    w: 0.0597686171532
---
header: 
  seq: 242
  stamp: 
    secs: 1363639132
    nsecs: 810296563
  frame_id: "world"
pose: 
  position: 
    x: 0.156288996339
    y: -0.888144671917
    z: 1.39671325684
  orientation: 
    x: 0.108209684491
    y: -0.083013497293
    z: -0.988705337048
    w: 0.0621388368309
---
header: 
  seq: 243
  stamp: 
    secs: 1363639132
    nsecs: 835301120
  frame_id: "world"
pose: 
  position: 
    x: 0.150628149509
    y: -0.89185410738
    z: 1.39896094799
  orientation: 
    x: 0.108426615596
    y: -0.0833307951689
    z: -0.988567173481
    w: 0.0635177865624
---
header: 
  seq: 244
  stamp: 
    secs: 1363639132
    nsecs: 868656117
  frame_id: "world"
pose: 
  position: 
    x: 0.143547728658
    y: -0.897063553333
    z: 1.40177237988
  orientation: 
    x: 0.108095616102
    y: -0.0827304795384
    z: -0.988532066345
    w: 0.0653861612082
---
header: 
  seq: 245
  stamp: 
    secs: 1363639132
    nsecs: 901916311
  frame_id: "world"
pose: 
  position: 
    x: 0.136283993721
    y: -0.902322232723
    z: 1.40419960022
  orientation: 
    x: 0.108562909067
    y: -0.0815718919039
    z: -0.988532543182
    w: 0.0660576671362
---
header: 
  seq: 246
  stamp: 
    secs: 1363639132
    nsecs: 926979157
  frame_id: "world"
pose: 
  position: 
    x: 0.131123334169
    y: -0.906470239162
    z: 1.40588617325
  orientation: 
    x: 0.108319170773
    y: -0.0808642581105
    z: -0.98855650425
    w: 0.0669633969665
---
header: 
  seq: 247
  stamp: 
    secs: 1363639132
    nsecs: 960146408
  frame_id: "world"
pose: 
  position: 
    x: 0.124442242086
    y: -0.912245452404
    z: 1.40837299824
  orientation: 
    x: 0.107426792383
    y: -0.0802680253983
    z: -0.988592207432
    w: 0.0685709491372
---
header: 
  seq: 248
  stamp: 
    secs: 1363639132
    nsecs: 985247771
  frame_id: "world"
pose: 
  position: 
    x: 0.119610697031
    y: -0.916780173779
    z: 1.41000556946
  orientation: 
    x: 0.108022257686
    y: -0.0799961313605
    z: -0.988448262215
    w: 0.0700138956308
---
header: 
  seq: 249
  stamp: 
    secs: 1363639133
    nsecs:  18677427
  frame_id: "world"
pose: 
  position: 
    x: 0.113399423659
    y: -0.923034787178
    z: 1.41164088249
  orientation: 
    x: 0.11010427773
    y: -0.0797861814499
    z: -0.988074123859
    w: 0.0722549036145
---
header: 
  seq: 250
  stamp: 
    secs: 1363639133
    nsecs:  53153358
  frame_id: "world"
pose: 
  position: 
    x: 0.107324339449
    y: -0.92924875021
    z: 1.4140753746
  orientation: 
    x: 0.108715444803
    y: -0.0803214609623
    z: -0.988022148609
    w: 0.0744424164295
---
header: 
  seq: 251
  stamp: 
    secs: 1363639133
    nsecs:  76979974
  frame_id: "world"
pose: 
  position: 
    x: 0.103003844619
    y: -0.934069514275
    z: 1.41573560238
  orientation: 
    x: 0.10841820389
    y: -0.0810746327043
    z: -0.987860918045
    w: 0.076177880168
---
header: 
  seq: 252
  stamp: 
    secs: 1363639133
    nsecs: 118615246
  frame_id: "world"
pose: 
  position: 
    x: 0.0958025157452
    y: -0.94229978323
    z: 1.41851198673
  orientation: 
    x: 0.107027992606
    y: -0.0813966318965
    z: -0.987746536732
    w: 0.0792235806584
---
header: 
  seq: 253
  stamp: 
    secs: 1363639133
    nsecs: 160090254
  frame_id: "world"
pose: 
  position: 
    x: 0.0890117958188
    y: -0.950592875481
    z: 1.42095112801
  orientation: 
    x: 0.106581412256
    y: -0.0806987807155
    z: -0.987655699253
    w: 0.0816350206733
---
header: 
  seq: 254
  stamp: 
    secs: 1363639133
    nsecs: 185183270
  frame_id: "world"
pose: 
  position: 
    x: 0.0848520472646
    y: -0.955440461636
    z: 1.42228090763
  orientation: 
    x: 0.107747413218
    y: -0.0799660682678
    z: -0.987461328506
    w: 0.0831622928381
---
header: 
  seq: 255
  stamp: 
    secs: 1363639133
    nsecs: 226809742
  frame_id: "world"
pose: 
  position: 
    x: 0.0776725262403
    y: -0.963414728642
    z: 1.42395579815
  orientation: 
    x: 0.108329974115
    y: -0.0786648914218
    z: -0.987332761288
    w: 0.0851494222879
---
header: 
  seq: 256
  stamp: 
    secs: 1363639133
    nsecs: 260270161
  frame_id: "world"
pose: 
  position: 
    x: 0.0720370933414
    y: -0.96963685751
    z: 1.42515289783
  orientation: 
    x: 0.10825061053
    y: -0.0783948600292
    z: -0.987217009068
    w: 0.086825594306
---
header: 
  seq: 257
  stamp: 
    secs: 1363639133
    nsecs: 285297759
  frame_id: "world"
pose: 
  position: 
    x: 0.0676933676004
    y: -0.974224925041
    z: 1.42598283291
  orientation: 
    x: 0.108010783792
    y: -0.0779157653451
    z: -0.987169981003
    w: 0.0880812555552
---
header: 
  seq: 258
  stamp: 
    secs: 1363639133
    nsecs: 318551140
  frame_id: "world"
pose: 
  position: 
    x: 0.0619465708733
    y: -0.980495810509
    z: 1.42694032192
  orientation: 
    x: 0.107983656228
    y: -0.0787222906947
    z: -0.986891627312
    w: 0.0904831439257
---
header: 
  seq: 259
  stamp: 
    secs: 1363639133
    nsecs: 351802692
  frame_id: "world"
pose: 
  position: 
    x: 0.056448623538
    y: -0.986926913261
    z: 1.42850518227
  orientation: 
    x: 0.107968464494
    y: -0.0809009075165
    z: -0.986412107944
    w: 0.0937492698431
---
header: 
  seq: 260
  stamp: 
    secs: 1363639133
    nsecs: 385269508
  frame_id: "world"
pose: 
  position: 
    x: 0.0512413755059
    y: -0.993539988995
    z: 1.43035340309
  orientation: 
    x: 0.108641758561
    y: -0.0837438628078
    z: -0.985759973526
    w: 0.0972690805793
---
header: 
  seq: 261
  stamp: 
    secs: 1363639133
    nsecs: 410279581
  frame_id: "world"
pose: 
  position: 
    x: 0.0475866608322
    y: -0.998834490776
    z: 1.43215560913
  orientation: 
    x: 0.108832128346
    y: -0.0859717205167
    z: -0.985212445259
    w: 0.100601673126
---
header: 
  seq: 262
  stamp: 
    secs: 1363639133
    nsecs: 443876490
  frame_id: "world"
pose: 
  position: 
    x: 0.0430223830044
    y: -1.00605738163
    z: 1.4347012043
  orientation: 
    x: 0.107846133411
    y: -0.0886359363794
    z: -0.984718024731
    w: 0.10413081944
---
header: 
  seq: 263
  stamp: 
    secs: 1363639133
    nsecs: 476811594
  frame_id: "world"
pose: 
  position: 
    x: 0.0387985818088
    y: -1.01347470284
    z: 1.43733799458
  orientation: 
    x: 0.108562551439
    y: -0.0899939462543
    z: -0.984096765518
    w: 0.108022727072
---
header: 
  seq: 264
  stamp: 
    secs: 1363639133
    nsecs: 526992163
  frame_id: "world"
pose: 
  position: 
    x: 0.0328719951212
    y: -1.02485585213
    z: 1.44182801247
  orientation: 
    x: 0.107709467411
    y: -0.0887468233705
    z: -0.983982026577
    w: 0.110914736986
---
header: 
  seq: 265
  stamp: 
    secs: 1363639133
    nsecs: 552460962
  frame_id: "world"
pose: 
  position: 
    x: 0.0300549417734
    y: -1.03064346313
    z: 1.44393384457
  orientation: 
    x: 0.107426092029
    y: -0.0868715941906
    z: -0.984091997147
    w: 0.111695930362
---
header: 
  seq: 266
  stamp: 
    secs: 1363639133
    nsecs: 585272708
  frame_id: "world"
pose: 
  position: 
    x: 0.0264988094568
    y: -1.03853857517
    z: 1.44685292244
  orientation: 
    x: 0.107093140483
    y: -0.0837963819504
    z: -0.984229445457
    w: 0.113144151866
---
header: 
  seq: 267
  stamp: 
    secs: 1363639133
    nsecs: 618570224
  frame_id: "world"
pose: 
  position: 
    x: 0.0229674354196
    y: -1.0466504097
    z: 1.44937515259
  orientation: 
    x: 0.107696391642
    y: -0.0799764543772
    z: -0.984408855438
    w: 0.113773159683
---
header: 
  seq: 268
  stamp: 
    secs: 1363639133
    nsecs: 643607074
  frame_id: "world"
pose: 
  position: 
    x: 0.0204053949565
    y: -1.0527998209
    z: 1.45135462284
  orientation: 
    x: 0.107910580933
    y: -0.0774972438812
    z: -0.984503567219
    w: 0.114464767277
---
header: 
  seq: 269
  stamp: 
    secs: 1363639133
    nsecs: 685297759
  frame_id: "world"
pose: 
  position: 
    x: 0.0162639506161
    y: -1.06314706802
    z: 1.45443689823
  orientation: 
    x: 0.108606763184
    y: -0.0741541534662
    z: -0.984483063221
    w: 0.116184562445
---
header: 
  seq: 270
  stamp: 
    secs: 1363639133
    nsecs: 760276208
  frame_id: "world"
pose: 
  position: 
    x: 0.00960671994835
    y: -1.08250808716
    z: 1.46143293381
  orientation: 
    x: 0.109005652368
    y: -0.0742431282997
    z: -0.983695447445
    w: 0.12226626277
---
header: 
  seq: 271
  stamp: 
    secs: 1363639133
    nsecs: 793562101
  frame_id: "world"
pose: 
  position: 
    x: 0.00724253710359
    y: -1.09181952477
    z: 1.46476709843
  orientation: 
    x: 0.10813806206
    y: -0.076044715941
    z: -0.98316681385
    w: 0.126120775938
---
header: 
  seq: 272
  stamp: 
    secs: 1363639133
    nsecs: 835159055
  frame_id: "world"
pose: 
  position: 
    x: 0.00463842134923
    y: -1.10353648663
    z: 1.46922719479
  orientation: 
    x: 0.109451055527
    y: -0.0785284563899
    z: -0.982135295868
    w: 0.131392911077
---
header: 
  seq: 273
  stamp: 
    secs: 1363639133
    nsecs: 876838452
  frame_id: "world"
pose: 
  position: 
    x: 0.00297667761333
    y: -1.11585533619
    z: 1.47468340397
  orientation: 
    x: 0.106475293636
    y: -0.0810551866889
    z: -0.981552243233
    w: 0.136558502913
---
header: 
  seq: 274
  stamp: 
    secs: 1363639133
    nsecs: 951909626
  frame_id: "world"
pose: 
  position: 
    x: 0.000630397233181
    y: -1.13836216927
    z: 1.48414874077
  orientation: 
    x: 0.105999693274
    y: -0.0796100050211
    z: -0.98076570034
    w: 0.143265902996
---
header: 
  seq: 275
  stamp: 
    secs: 1363639133
    nsecs: 993570572
  frame_id: "world"
pose: 
  position: 
    x: -8.24547096272e-05
    y: -1.15155303478
    z: 1.48923563957
  orientation: 
    x: 0.104872457683
    y: -0.0760758891702
    z: -0.98080945015
    w: 0.14569580555
---
header: 
  seq: 276
  stamp: 
    secs: 1363639134
    nsecs:  26772710
  frame_id: "world"
pose: 
  position: 
    x: -0.000513189879712
    y: -1.16230630875
    z: 1.492847085
  orientation: 
    x: 0.103389531374
    y: -0.0727571249008
    z: -0.980939805508
    w: 0.147560402751
---
header: 
  seq: 277
  stamp: 
    secs: 1363639134
    nsecs:  60147477
  frame_id: "world"
pose: 
  position: 
    x: -0.000365086103557
    y: -1.17331051826
    z: 1.49648761749
  orientation: 
    x: 0.10445279628
    y: -0.069615803659
    z: -0.980767548084
    w: 0.149460226297
---
header: 
  seq: 278
  stamp: 
    secs: 1363639134
    nsecs:  93490002
  frame_id: "world"
pose: 
  position: 
    x: -0.00195357948542
    y: -1.18498694897
    z: 1.50564920902
  orientation: 
    x: 0.0690304785967
    y: -0.0742451250553
    z: -0.983430981636
    w: 0.15028630197
---
header: 
  seq: 279
  stamp: 
    secs: 1363639134
    nsecs: 118573071
  frame_id: "world"
pose: 
  position: 
    x: 3.94594235331e-06
    y: -1.19306135178
    z: 1.50229680538
  orientation: 
    x: 0.10309022665
    y: -0.0640076473355
    z: -0.980607807636
    w: 0.153895661235
---
header: 
  seq: 280
  stamp: 
    secs: 1363639134
    nsecs: 143565152
  frame_id: "world"
pose: 
  position: 
    x: 0.000596439000219
    y: -1.20160782337
    z: 1.50452935696
  orientation: 
    x: 0.103922381997
    y: -0.0626415163279
    z: -0.980291306973
    w: 0.155901476741
---
header: 
  seq: 281
  stamp: 
    secs: 1363639134
    nsecs: 176798757
  frame_id: "world"
pose: 
  position: 
    x: 0.00186791655142
    y: -1.21276307106
    z: 1.50690770149
  orientation: 
    x: 0.106787249446
    y: -0.0618992447853
    z: -0.979480564594
    w: 0.15931981802
---
header: 
  seq: 282
  stamp: 
    secs: 1363639134
    nsecs: 201913431
  frame_id: "world"
pose: 
  position: 
    x: 0.00257584336214
    y: -1.22138655186
    z: 1.5097849369
  orientation: 
    x: 0.10534350574
    y: -0.0625713318586
    z: -0.979114830494
    w: 0.162239909172
---
header: 
  seq: 283
  stamp: 
    secs: 1363639134
    nsecs: 235186401
  frame_id: "world"
pose: 
  position: 
    x: 0.0041817240417
    y: -1.23266124725
    z: 1.51319384575
  orientation: 
    x: 0.105822302401
    y: -0.0637203902006
    z: -0.97822868824
    w: 0.166763275862
---
header: 
  seq: 284
  stamp: 
    secs: 1363639134
    nsecs: 276888915
  frame_id: "world"
pose: 
  position: 
    x: 0.00636848108843
    y: -1.24684405327
    z: 1.51780295372
  orientation: 
    x: 0.10512662679
    y: -0.064590498805
    z: -0.977286696434
    w: 0.172299593687
---
header: 
  seq: 285
  stamp: 
    secs: 1363639134
    nsecs: 301769661
  frame_id: "world"
pose: 
  position: 
    x: 0.00805223360658
    y: -1.25507056713
    z: 1.5206387043
  orientation: 
    x: 0.105303645134
    y: -0.0647743195295
    z: -0.976724147797
    w: 0.175286605954
---
header: 
  seq: 286
  stamp: 
    secs: 1363639134
    nsecs: 335182435
  frame_id: "world"
pose: 
  position: 
    x: 0.0103776464239
    y: -1.26585006714
    z: 1.52479076385
  orientation: 
    x: 0.103862531483
    y: -0.0647590383887
    z: -0.976384937763
    w: 0.178020313382
---
header: 
  seq: 287
  stamp: 
    secs: 1363639134
    nsecs: 376953223
  frame_id: "world"
pose: 
  position: 
    x: 0.0130691602826
    y: -1.27863323689
    z: 1.52985131741
  orientation: 
    x: 0.104920402169
    y: -0.0637554526329
    z: -0.975774049759
    w: 0.181085303426
---
header: 
  seq: 288
  stamp: 
    secs: 1363639134
    nsecs: 418548170
  frame_id: "world"
pose: 
  position: 
    x: 0.0157377384603
    y: -1.29160606861
    z: 1.53539061546
  orientation: 
    x: 0.0992961898446
    y: -0.0625247359276
    z: -0.975744843483
    w: 0.184805616736
---
header: 
  seq: 289
  stamp: 
    secs: 1363639134
    nsecs: 443386051
  frame_id: "world"
pose: 
  position: 
    x: 0.0176923573017
    y: -1.29909300804
    z: 1.53848171234
  orientation: 
    x: 0.0993991941214
    y: -0.0613584816456
    z: -0.975495755672
    w: 0.18644836545
---
header: 
  seq: 290
  stamp: 
    secs: 1363639134
    nsecs: 476822396
  frame_id: "world"
pose: 
  position: 
    x: 0.0204825084656
    y: -1.3090698719
    z: 1.54280269146
  orientation: 
    x: 0.0982128381729
    y: -0.0604272298515
    z: -0.975305378437
    w: 0.188367426395
---
header: 
  seq: 291
  stamp: 
    secs: 1363639134
    nsecs: 526820902
  frame_id: "world"
pose: 
  position: 
    x: 0.0256644971669
    y: -1.32444787025
    z: 1.54961133003
  orientation: 
    x: 0.0967102721334
    y: -0.0596117675304
    z: -0.974672973156
    w: 0.192629694939
---
header: 
  seq: 292
  stamp: 
    secs: 1363639134
    nsecs: 585121178
  frame_id: "world"
pose: 
  position: 
    x: 0.0331451185048
    y: -1.34250986576
    z: 1.55803978443
  orientation: 
    x: 0.0956007316709
    y: -0.058713875711
    z: -0.973794817924
    w: 0.197830632329
---
header: 
  seq: 293
  stamp: 
    secs: 1363639134
    nsecs: 626870714
  frame_id: "world"
pose: 
  position: 
    x: 0.0396175645292
    y: -1.35561406612
    z: 1.56467807293
  orientation: 
    x: 0.0933333709836
    y: -0.0580487176776
    z: -0.973384320736
    w: 0.201102539897
---
header: 
  seq: 294
  stamp: 
    secs: 1363639134
    nsecs: 660917826
  frame_id: "world"
pose: 
  position: 
    x: 0.0452620647848
    y: -1.36618006229
    z: 1.57003462315
  orientation: 
    x: 0.0914531499147
    y: -0.0574017688632
    z: -0.973081827164
    w: 0.203600287437
---
header: 
  seq: 295
  stamp: 
    secs: 1363639134
    nsecs: 701887231
  frame_id: "world"
pose: 
  position: 
    x: 0.0528527908027
    y: -1.37967884541
    z: 1.57641613483
  orientation: 
    x: 0.0903876498342
    y: -0.0555852949619
    z: -0.972623407841
    w: 0.206746533513
---
header: 
  seq: 296
  stamp: 
    secs: 1363639134
    nsecs: 735215240
  frame_id: "world"
pose: 
  position: 
    x: 0.0593032278121
    y: -1.39048981667
    z: 1.58143413067
  orientation: 
    x: 0.0902100801468
    y: -0.0536807924509
    z: -0.972241103649
    w: 0.209111824632
---
header: 
  seq: 297
  stamp: 
    secs: 1363639134
    nsecs: 769123016
  frame_id: "world"
pose: 
  position: 
    x: 0.0661392509937
    y: -1.40128946304
    z: 1.58682882786
  orientation: 
    x: 0.088226236403
    y: -0.0526319257915
    z: -0.971900641918
    w: 0.211790516973
---
header: 
  seq: 298
  stamp: 
    secs: 1363639134
    nsecs: 818594345
  frame_id: "world"
pose: 
  position: 
    x: 0.077512614429
    y: -1.41757726669
    z: 1.59475839138
  orientation: 
    x: 0.086297981441
    y: -0.0516549348831
    z: -0.971208930016
    w: 0.215957418084
---
header: 
  seq: 299
  stamp: 
    secs: 1363639134
    nsecs: 894059800
  frame_id: "world"
pose: 
  position: 
    x: 0.0959861502051
    y: -1.44282841682
    z: 1.60701990128
  orientation: 
    x: 0.0835764333606
    y: -0.0510338917375
    z: -0.969687402248
    w: 0.223867699504
---
header: 
  seq: 300
  stamp: 
    secs: 1363639134
    nsecs: 943449605
  frame_id: "world"
pose: 
  position: 
    x: 0.110976971686
    y: -1.46035015583
    z: 1.61319732666
  orientation: 
    x: 0.0900103002787
    y: -0.0462061837316
    z: -0.968521535397
    w: 0.227440804243
---
header: 
  seq: 301
  stamp: 
    secs: 1363639135
    nsecs:   3032686
  frame_id: "world"
pose: 
  position: 
    x: 0.127174153924
    y: -1.48096227646
    z: 1.62045502663
  orientation: 
    x: 0.0866359099746
    y: -0.0383817330003
    z: -0.968567967415
    w: 0.229994013906
---
header: 
  seq: 302
  stamp: 
    secs: 1363639135
    nsecs:  76848154
  frame_id: "world"
pose: 
  position: 
    x: 0.148413270712
    y: -1.50640809536
    z: 1.62850403786
  orientation: 
    x: 0.0841784626245
    y: -0.0314529687166
    z: -0.96810978651
    w: 0.23385502398
---
header: 
  seq: 303
  stamp: 
    secs: 1363639135
    nsecs: 143749571
  frame_id: "world"
pose: 
  position: 
    x: 0.16916012764
    y: -1.52800643444
    z: 1.63576984406
  orientation: 
    x: 0.0852553322911
    y: -0.0345054641366
    z: -0.965672671795
    w: 0.242934525013
---
header: 
  seq: 304
  stamp: 
    secs: 1363639135
    nsecs: 185156975
  frame_id: "world"
pose: 
  position: 
    x: 0.182732149959
    y: -1.54115617275
    z: 1.64152431488
  orientation: 
    x: 0.0819775760174
    y: -0.0414381921291
    z: -0.963986814022
    w: 0.249583497643
---
header: 
  seq: 305
  stamp: 
    secs: 1363639135
    nsecs: 235141246
  frame_id: "world"
pose: 
  position: 
    x: 0.199992656708
    y: -1.55648803711
    z: 1.64820933342
  orientation: 
    x: 0.0812916234136
    y: -0.0476335436106
    z: -0.961436510086
    w: 0.258384346962
---
header: 
  seq: 306
  stamp: 
    secs: 1363639135
    nsecs: 276867794
  frame_id: "world"
pose: 
  position: 
    x: 0.214723259211
    y: -1.5690485239
    z: 1.65369272232
  orientation: 
    x: 0.0813179165125
    y: -0.0495347753167
    z: -0.959417164326
    w: 0.265428334475
---
header: 
  seq: 307
  stamp: 
    secs: 1363639135
    nsecs: 310142135
  frame_id: "world"
pose: 
  position: 
    x: 0.225849315524
    y: -1.57764363289
    z: 1.65826928616
  orientation: 
    x: 0.078706368804
    y: -0.0517871938646
    z: -0.958778619766
    w: 0.268080204725
---
header: 
  seq: 308
  stamp: 
    secs: 1363639135
    nsecs: 343539624
  frame_id: "world"
pose: 
  position: 
    x: 0.237554997206
    y: -1.58609652519
    z: 1.66257143021
  orientation: 
    x: 0.0789454877377
    y: -0.0508092492819
    z: -0.958090901375
    w: 0.270643264055
---
header: 
  seq: 309
  stamp: 
    secs: 1363639135
    nsecs: 377619834
  frame_id: "world"
pose: 
  position: 
    x: 0.24905911088
    y: -1.59431004524
    z: 1.6670845747
  orientation: 
    x: 0.0771932080388
    y: -0.0496842265129
    z: -0.957699418068
    w: 0.272735387087
---
header: 
  seq: 310
  stamp: 
    secs: 1363639135
    nsecs: 401882444
  frame_id: "world"
pose: 
  position: 
    x: 0.257568478584
    y: -1.60025846958
    z: 1.67038989067
  orientation: 
    x: 0.0759055241942
    y: -0.0479159131646
    z: -0.957604646683
    w: 0.273744016886
---
header: 
  seq: 311
  stamp: 
    secs: 1363639135
    nsecs: 435189461
  frame_id: "world"
pose: 
  position: 
    x: 0.269018441439
    y: -1.60798835754
    z: 1.67445886135
  orientation: 
    x: 0.0762874782085
    y: -0.0451058708131
    z: -0.957280933857
    w: 0.275243192911
---
header: 
  seq: 312
  stamp: 
    secs: 1363639135
    nsecs: 460158834
  frame_id: "world"
pose: 
  position: 
    x: 0.277680546045
    y: -1.61338591576
    z: 1.67780709267
  orientation: 
    x: 0.0752085223794
    y: -0.0439864695072
    z: -0.957056939602
    w: 0.276497483253
---
header: 
  seq: 313
  stamp: 
    secs: 1363639135
    nsecs: 493508436
  frame_id: "world"
pose: 
  position: 
    x: 0.289211213589
    y: -1.62026238441
    z: 1.68217206001
  orientation: 
    x: 0.0739740133286
    y: -0.0420993305743
    z: -0.956856966019
    w: 0.277813464403
---
header: 
  seq: 314
  stamp: 
    secs: 1363639135
    nsecs: 526909521
  frame_id: "world"
pose: 
  position: 
    x: 0.300505131483
    y: -1.62680828571
    z: 1.68623948097
  orientation: 
    x: 0.0720492601395
    y: -0.0402110666037
    z: -0.956702828407
    w: 0.279126882553
---
header: 
  seq: 315
  stamp: 
    secs: 1363639135
    nsecs: 551846637
  frame_id: "world"
pose: 
  position: 
    x: 0.308952689171
    y: -1.63117468357
    z: 1.68908178806
  orientation: 
    x: 0.0699663385749
    y: -0.0389104112983
    z: -0.9567091465
    w: 0.279818356037
---
header: 
  seq: 316
  stamp: 
    secs: 1363639135
    nsecs: 593557199
  frame_id: "world"
pose: 
  position: 
    x: 0.323393702507
    y: -1.63899970055
    z: 1.69363367558
  orientation: 
    x: 0.0705445408821
    y: -0.0373199656606
    z: -0.956288397312
    w: 0.28132379055
---
header: 
  seq: 317
  stamp: 
    secs: 1363639135
    nsecs: 626939645
  frame_id: "world"
pose: 
  position: 
    x: 0.335421293974
    y: -1.64452219009
    z: 1.69730496407
  orientation: 
    x: 0.0690928846598
    y: -0.0371100008488
    z: -0.955541729927
    w: 0.284234166145
---
header: 
  seq: 318
  stamp: 
    secs: 1363639135
    nsecs: 651794459
  frame_id: "world"
pose: 
  position: 
    x: 0.344603955746
    y: -1.6484156847
    z: 1.7000849247
  orientation: 
    x: 0.0670873448253
    y: -0.0377542153001
    z: -0.955076277256
    w: 0.286187469959
---
header: 
  seq: 319
  stamp: 
    secs: 1363639135
    nsecs: 676824402
  frame_id: "world"
pose: 
  position: 
    x: 0.35360866785
    y: -1.65220189095
    z: 1.70227169991
  orientation: 
    x: 0.0682988762856
    y: -0.0368399806321
    z: -0.954660475254
    w: 0.287404686213
---
header: 
  seq: 320
  stamp: 
    secs: 1363639135
    nsecs: 710205436
  frame_id: "world"
pose: 
  position: 
    x: 0.365766406059
    y: -1.65664291382
    z: 1.70545804501
  orientation: 
    x: 0.0671226233244
    y: -0.0364586338401
    z: -0.954281687737
    w: 0.288984000683
---
header: 
  seq: 321
  stamp: 
    secs: 1363639135
    nsecs: 736245005
  frame_id: "world"
pose: 
  position: 
    x: 0.374913722277
    y: -1.65974080563
    z: 1.70767331123
  orientation: 
    x: 0.0661119073629
    y: -0.0360434353352
    z: -0.954022943974
    w: 0.290121167898
---
header: 
  seq: 322
  stamp: 
    secs: 1363639135
    nsecs: 776910818
  frame_id: "world"
pose: 
  position: 
    x: 0.390003532171
    y: -1.66456389427
    z: 1.71090066433
  orientation: 
    x: 0.0648765042424
    y: -0.034882131964
    z: -0.953590154648
    w: 0.29195907712
---
header: 
  seq: 323
  stamp: 
    secs: 1363639135
    nsecs: 810224332
  frame_id: "world"
pose: 
  position: 
    x: 0.40200394392
    y: -1.66770911217
    z: 1.71329569817
  orientation: 
    x: 0.0626231655478
    y: -0.0341512821615
    z: -0.953506350517
    w: 0.292810052633
---
header: 
  seq: 324
  stamp: 
    secs: 1363639135
    nsecs: 843569703
  frame_id: "world"
pose: 
  position: 
    x: 0.413874328136
    y: -1.67050349712
    z: 1.71542465687
  orientation: 
    x: 0.0626962706447
    y: -0.0327056348324
    z: -0.953182041645
    w: 0.294012904167
---
header: 
  seq: 325
  stamp: 
    secs: 1363639135
    nsecs: 868536948
  frame_id: "world"
pose: 
  position: 
    x: 0.422727763653
    y: -1.67230439186
    z: 1.71686041355
  orientation: 
    x: 0.0622962005436
    y: -0.0321869812906
    z: -0.953097224236
    w: 0.294429808855
---
header: 
  seq: 326
  stamp: 
    secs: 1363639135
    nsecs: 901894039
  frame_id: "world"
pose: 
  position: 
    x: 0.434354096651
    y: -1.67456495762
    z: 1.71808767319
  orientation: 
    x: 0.0620872229338
    y: -0.0308307334781
    z: -0.953085780144
    w: 0.294655948877
---
header: 
  seq: 327
  stamp: 
    secs: 1363639135
    nsecs: 935171691
  frame_id: "world"
pose: 
  position: 
    x: 0.445880532265
    y: -1.6762791872
    z: 1.71890258789
  orientation: 
    x: 0.0613444857299
    y: -0.0294606424868
    z: -0.953029632568
    w: 0.295132666826
---
header: 
  seq: 328
  stamp: 
    secs: 1363639135
    nsecs: 976867549
  frame_id: "world"
pose: 
  position: 
    x: 0.46029111743
    y: -1.6780680418
    z: 1.71964418888
  orientation: 
    x: 0.0607875883579
    y: -0.0288177244365
    z: -0.95278185606
    w: 0.296109944582
---
header: 
  seq: 329
  stamp: 
    secs: 1363639136
    nsecs:  10246413
  frame_id: "world"
pose: 
  position: 
    x: 0.471733659506
    y: -1.67936229706
    z: 1.71986734867
  orientation: 
    x: 0.0603294931352
    y: -0.0286477357149
    z: -0.952365279198
    w: 0.297556698322
---
header: 
  seq: 330
  stamp: 
    secs: 1363639136
    nsecs:  51911802
  frame_id: "world"
pose: 
  position: 
    x: 0.485622882843
    y: -1.68041396141
    z: 1.7197906971
  orientation: 
    x: 0.0604467093945
    y: -0.0285236127675
    z: -0.951995253563
    w: 0.298726499081
---
header: 
  seq: 331
  stamp: 
    secs: 1363639136
    nsecs:  76912503
  frame_id: "world"
pose: 
  position: 
    x: 0.493906199932
    y: -1.68043625355
    z: 1.72007536888
  orientation: 
    x: 0.0587143339217
    y: -0.0300086736679
    z: -0.951715946198
    w: 0.299814581871
---
header: 
  seq: 332
  stamp: 
    secs: 1363639136
    nsecs: 110774754
  frame_id: "world"
pose: 
  position: 
    x: 0.504427909851
    y: -1.68070018291
    z: 1.72017288208
  orientation: 
    x: 0.0604675263166
    y: -0.0301744788885
    z: -0.951191484928
    w: 0.301111221313
---
header: 
  seq: 333
  stamp: 
    secs: 1363639136
    nsecs: 143550277
  frame_id: "world"
pose: 
  position: 
    x: 0.514905035496
    y: -1.68028342724
    z: 1.72066688538
  orientation: 
    x: 0.0587827041745
    y: -0.0317115262151
    z: -0.950773835182
    w: 0.302602142096
---
header: 
  seq: 334
  stamp: 
    secs: 1363639136
    nsecs: 176854862
  frame_id: "world"
pose: 
  position: 
    x: 0.524469017982
    y: -1.67895305157
    z: 1.72068417072
  orientation: 
    x: 0.0593700893223
    y: -0.0320966169238
    z: -0.950863420963
    w: 0.302165329456
---
header: 
  seq: 335
  stamp: 
    secs: 1363639136
    nsecs: 210177817
  frame_id: "world"
pose: 
  position: 
    x: 0.533656656742
    y: -1.67749881744
    z: 1.7212293148
  orientation: 
    x: 0.0597548186779
    y: -0.0331315472722
    z: -0.950903952122
    w: 0.30184969306
---
header: 
  seq: 336
  stamp: 
    secs: 1363639136
    nsecs: 243541550
  frame_id: "world"
pose: 
  position: 
    x: 0.542561352253
    y: -1.67579877377
    z: 1.72193086147
  orientation: 
    x: 0.0598923712969
    y: -0.0344253703952
    z: -0.950493752956
    w: 0.302967488766
---
header: 
  seq: 337
  stamp: 
    secs: 1363639136
    nsecs: 268500787
  frame_id: "world"
pose: 
  position: 
    x: 0.549165964127
    y: -1.67404079437
    z: 1.72266924381
  orientation: 
    x: 0.0599228516221
    y: -0.035741623491
    z: -0.950182855129
    w: 0.303783118725
---
header: 
  seq: 338
  stamp: 
    secs: 1363639136
    nsecs: 301825825
  frame_id: "world"
pose: 
  position: 
    x: 0.557983994484
    y: -1.67131841183
    z: 1.72380340099
  orientation: 
    x: 0.0608027018607
    y: -0.0370215289295
    z: -0.949602544308
    w: 0.305266350508
---
header: 
  seq: 339
  stamp: 
    secs: 1363639136
    nsecs: 335130522
  frame_id: "world"
pose: 
  position: 
    x: 0.566170573235
    y: -1.66776323318
    z: 1.72534894943
  orientation: 
    x: 0.0603170283139
    y: -0.0393647775054
    z: -0.94944691658
    w: 0.305553168058
---
header: 
  seq: 340
  stamp: 
    secs: 1363639136
    nsecs: 368548163
  frame_id: "world"
pose: 
  position: 
    x: 0.574039101601
    y: -1.66369044781
    z: 1.72692060471
  orientation: 
    x: 0.0600051209331
    y: -0.0411194935441
    z: -0.949340522289
    w: 0.305714040995
---
header: 
  seq: 341
  stamp: 
    secs: 1363639136
    nsecs: 401791554
  frame_id: "world"
pose: 
  position: 
    x: 0.58204293251
    y: -1.65913712978
    z: 1.72845292091
  orientation: 
    x: 0.0604517869651
    y: -0.0426459461451
    z: -0.949255824089
    w: 0.305680006742
---
header: 
  seq: 342
  stamp: 
    secs: 1363639136
    nsecs: 443423163
  frame_id: "world"
pose: 
  position: 
    x: 0.59240090847
    y: -1.65241229534
    z: 1.73180317879
  orientation: 
    x: 0.06025249511
    y: -0.0473638102412
    z: -0.948491573334
    w: 0.307392239571
---
header: 
  seq: 343
  stamp: 
    secs: 1363639136
    nsecs: 468401962
  frame_id: "world"
pose: 
  position: 
    x: 0.598796129227
    y: -1.64780271053
    z: 1.7346817255
  orientation: 
    x: 0.0603816434741
    y: -0.0515294037759
    z: -0.947684645653
    w: 0.309180498123
---
header: 
  seq: 344
  stamp: 
    secs: 1363639136
    nsecs: 501694427
  frame_id: "world"
pose: 
  position: 
    x: 0.607216775417
    y: -1.64116084576
    z: 1.73943471909
  orientation: 
    x: 0.0577988512814
    y: -0.0574764162302
    z: -0.946180343628
    w: 0.313206791878
---
header: 
  seq: 345
  stamp: 
    secs: 1363639136
    nsecs: 526731084
  frame_id: "world"
pose: 
  position: 
    x: 0.61361426115
    y: -1.63525927067
    z: 1.74245154858
  orientation: 
    x: 0.0600201189518
    y: -0.0595334991813
    z: -0.946134030819
    w: 0.312543720007
---
header: 
  seq: 346
  stamp: 
    secs: 1363639136
    nsecs: 560113542
  frame_id: "world"
pose: 
  position: 
    x: 0.621255874634
    y: -1.62669456005
    z: 1.74726581573
  orientation: 
    x: 0.0591006837785
    y: -0.0616365075111
    z: -0.946218967438
    w: 0.312054127455
---
header: 
  seq: 347
  stamp: 
    secs: 1363639136
    nsecs: 585203245
  frame_id: "world"
pose: 
  position: 
    x: 0.626934170723
    y: -1.61980009079
    z: 1.75093793869
  orientation: 
    x: 0.0574942901731
    y: -0.0620284974575
    z: -0.946591079235
    w: 0.311146616936
---
header: 
  seq: 348
  stamp: 
    secs: 1363639136
    nsecs: 618489712
  frame_id: "world"
pose: 
  position: 
    x: 0.633713245392
    y: -1.60976099968
    z: 1.75570082664
  orientation: 
    x: 0.0552229583263
    y: -0.0619874298573
    z: -0.947643220425
    w: 0.308350741863
---
header: 
  seq: 349
  stamp: 
    secs: 1363639136
    nsecs: 651829996
  frame_id: "world"
pose: 
  position: 
    x: 0.639943897724
    y: -1.59888756275
    z: 1.76083743572
  orientation: 
    x: 0.0534070581198
    y: -0.0608880445361
    z: -0.948836922646
    w: 0.305202960968
---
header: 
  seq: 350
  stamp: 
    secs: 1363639136
    nsecs: 676727945
  frame_id: "world"
pose: 
  position: 
    x: 0.643985569477
    y: -1.58984446526
    z: 1.764778018
  orientation: 
    x: 0.0514682494104
    y: -0.0597177520394
    z: -0.950203478336
    w: 0.301493257284
---
header: 
  seq: 351
  stamp: 
    secs: 1363639136
    nsecs: 710057891
  frame_id: "world"
pose: 
  position: 
    x: 0.648728907108
    y: -1.57778191566
    z: 1.76987934113
  orientation: 
    x: 0.0461584255099
    y: -0.0560391768813
    z: -0.952236533165
    w: 0.296605110168
---
header: 
  seq: 352
  stamp: 
    secs: 1363639136
    nsecs: 735020878
  frame_id: "world"
pose: 
  position: 
    x: 0.651709794998
    y: -1.56790411472
    z: 1.77330040932
  orientation: 
    x: 0.0445704944432
    y: -0.0534692928195
    z: -0.954055070877
    w: 0.291433364153
---
header: 
  seq: 353
  stamp: 
    secs: 1363639136
    nsecs: 776774740
  frame_id: "world"
pose: 
  position: 
    x: 0.656552970409
    y: -1.55071914196
    z: 1.77920222282
  orientation: 
    x: 0.0401243902743
    y: -0.0479759052396
    z: -0.957107484341
    w: 0.282902002335
---
header: 
  seq: 354
  stamp: 
    secs: 1363639136
    nsecs: 801755148
  frame_id: "world"
pose: 
  position: 
    x: 0.658464372158
    y: -1.54001712799
    z: 1.78185904026
  orientation: 
    x: 0.0385594367981
    y: -0.0438225269318
    z: -0.959067821503
    w: 0.277094960213
---
header: 
  seq: 355
  stamp: 
    secs: 1363639136
    nsecs: 835031077
  frame_id: "world"
pose: 
  position: 
    x: 0.659839570522
    y: -1.5253828764
    z: 1.78482925892
  orientation: 
    x: 0.0330647081137
    y: -0.0395513549447
    z: -0.961775124073
    w: 0.268944203854
---
header: 
  seq: 356
  stamp: 
    secs: 1363639136
    nsecs: 868568600
  frame_id: "world"
pose: 
  position: 
    x: 0.661170125008
    y: -1.51003432274
    z: 1.7872633934
  orientation: 
    x: 0.0314215384424
    y: -0.036266695708
    z: -0.963952600956
    w: 0.261711239815
---
header: 
  seq: 357
  stamp: 
    secs: 1363639136
    nsecs: 901785855
  frame_id: "world"
pose: 
  position: 
    x: 0.661746382713
    y: -1.49403178692
    z: 1.78913748264
  orientation: 
    x: 0.0303981527686
    y: -0.0349634587765
    z: -0.96588742733
    w: 0.254784286022
---
header: 
  seq: 358
  stamp: 
    secs: 1363639136
    nsecs: 926825915
  frame_id: "world"
pose: 
  position: 
    x: 0.662075698376
    y: -1.48212945461
    z: 1.79020929337
  orientation: 
    x: 0.0308022536337
    y: -0.0345780141652
    z: -0.966958880424
    w: 0.25069129467
---
header: 
  seq: 359
  stamp: 
    secs: 1363639136
    nsecs: 968569679
  frame_id: "world"
pose: 
  position: 
    x: 0.662338554859
    y: -1.46222996712
    z: 1.79098927975
  orientation: 
    x: 0.031318038702
    y: -0.036073487252
    z: -0.968461930752
    w: 0.244539126754
---
header: 
  seq: 360
  stamp: 
    secs: 1363639136
    nsecs: 993423557
  frame_id: "world"
pose: 
  position: 
    x: 0.662693083286
    y: -1.45034646988
    z: 1.79143989086
  orientation: 
    x: 0.0314125306904
    y: -0.0384003333747
    z: -0.969240069389
    w: 0.24106477201
---
header: 
  seq: 361
  stamp: 
    secs: 1363639137
    nsecs:  35142445
  frame_id: "world"
pose: 
  position: 
    x: 0.663352847099
    y: -1.43086528778
    z: 1.79209780693
  orientation: 
    x: 0.031949467957
    y: -0.0447393804789
    z: -0.969752132893
    w: 0.237820133567
---
header: 
  seq: 362
  stamp: 
    secs: 1363639137
    nsecs:  68437201
  frame_id: "world"
pose: 
  position: 
    x: 0.663203120232
    y: -1.41660106182
    z: 1.79976177216
  orientation: 
    x: -0.00346369855106
    y: -0.0620393939316
    z: -0.970086276531
    w: 0.234673693776
---
header: 
  seq: 363
  stamp: 
    secs: 1363639137
    nsecs: 101861835
  frame_id: "world"
pose: 
  position: 
    x: 0.665113389492
    y: -1.40160918236
    z: 1.79342937469
  orientation: 
    x: 0.0354476049542
    y: -0.054111186415
    z: -0.969773828983
    w: 0.235274389386
---
header: 
  seq: 364
  stamp: 
    secs: 1363639137
    nsecs: 126778734
  frame_id: "world"
pose: 
  position: 
    x: 0.665445148945
    y: -1.3911345005
    z: 1.7938272953
  orientation: 
    x: 0.0349076278508
    y: -0.0565192513168
    z: -0.97010910511
    w: 0.233399912715
---
header: 
  seq: 365
  stamp: 
    secs: 1363639137
    nsecs: 160184272
  frame_id: "world"
pose: 
  position: 
    x: 0.665675640106
    y: -1.37735533714
    z: 1.79489910603
  orientation: 
    x: 0.0334751196206
    y: -0.0594706721604
    z: -0.97088688612
    w: 0.229611441493
---
header: 
  seq: 366
  stamp: 
    secs: 1363639137
    nsecs: 202778299
  frame_id: "world"
pose: 
  position: 
    x: 0.66530418396
    y: -1.36077880859
    z: 1.79608488083
  orientation: 
    x: 0.0327457487583
    y: -0.0589578710496
    z: -0.972143650055
    w: 0.22447347641
---
header: 
  seq: 367
  stamp: 
    secs: 1363639137
    nsecs: 226845682
  frame_id: "world"
pose: 
  position: 
    x: 0.664980113506
    y: -1.35100054741
    z: 1.79685974121
  orientation: 
    x: 0.0328861735761
    y: -0.0578742437065
    z: -0.972980797291
    w: 0.221082419157
---
header: 
  seq: 368
  stamp: 
    secs: 1363639137
    nsecs: 260131615
  frame_id: "world"
pose: 
  position: 
    x: 0.662810087204
    y: -1.33750295639
    z: 1.79754590988
  orientation: 
    x: 0.0332173742354
    y: -0.0565119720995
    z: -0.97406744957
    w: 0.21655420959
---
header: 
  seq: 369
  stamp: 
    secs: 1363639137
    nsecs: 285210380
  frame_id: "world"
pose: 
  position: 
    x: 0.662495672703
    y: -1.32805454731
    z: 1.79797697067
  orientation: 
    x: 0.0378482937813
    y: -0.0547097846866
    z: -0.974705159664
    w: 0.213363915682
---
header: 
  seq: 370
  stamp: 
    secs: 1363639137
    nsecs: 310154217
  frame_id: "world"
pose: 
  position: 
    x: 0.661362528801
    y: -1.31862318516
    z: 1.80049204826
  orientation: 
    x: 0.0306258387864
    y: -0.0556827262044
    z: -0.975711643696
    w: 0.20963871479
---
header: 
  seq: 371
  stamp: 
    secs: 1363639137
    nsecs: 351745748
  frame_id: "world"
pose: 
  position: 
    x: 0.659617125988
    y: -1.30314958096
    z: 1.80278265476
  orientation: 
    x: 0.0285503081977
    y: -0.0541340261698
    z: -0.977077424526
    w: 0.203897103667
---
header: 
  seq: 372
  stamp: 
    secs: 1363639137
    nsecs: 385129733
  frame_id: "world"
pose: 
  position: 
    x: 0.658136963844
    y: -1.29054427147
    z: 1.80283486843
  orientation: 
    x: 0.035967823118
    y: -0.0505360811949
